$GPGSV,3,1,12,12,57,222,39,15,41,171,25,17,24,047,24,19,35,074,33*78
$GPGSV,3,2,12,23,20,250,40,24,79,037,37,32,11,316,27,10,22,285,*7D
$GPGSV,3,3,12,13,16,143,,20,07,226,,25,17,230,,28,00,000,*70
$GLGSV,2,1,08,02,40,312,36,12,34,268,32,01,45,213,29,21,13,116,24*6E
$GLGSV,2,2,08,10,23,057,,20,23,057,,19,04,004,,08,11,180,*67
$GPGSA,A,1,,,,,,,,,,,,,1.6,0.8,1.4*3A
$GNGSA,A,1,,,,,,,,,,,,,1.6,0.8,1.4*24
$GPVTG,,T,,M,0.0,N,0.0,K,A*23
$GPRMC,084901.67,A,4538.887164,N,00009.414778,E,0.0,,060421,2.1,W,A*00
$GPGGA,084901.67,4538.887164,N,00009.414778,E,1,00,0.8,101.0,M,49.0,M,,*62
$GPGSV,3,1,12,12,57,222,39,15,41,171,25,17,24,047,24,19,35,074,33*78
$GPGSV,3,2,12,23,20,250,40,24,79,037,37,32,11,316,27,10,22,285,*7D
$GPGSV,3,3,12,13,16,143,,20,07,226,,25,17,230,,28,00,000,*70
$GLGSV,2,1,08,02,40,312,36,12,34,268,32,01,45,213,29,21,13,116,24*6E
$GLGSV,2,2,08,10,23,057,,20,23,057,,19,04,004,,08,11,180,*67
$GPGSA,A,1,,,,,,,,,,,,,,,*1E
$GNGSA,A,1,,,,,,,,,,,,,,,*00
$GPVTG,,T,,M,,N,,K,N*2C
$GPRMC,,V,,,,,,,,,,N*53
$GPGGA,,,,,,0,,,,,,,,*66
$GPGSV,3,1,12,10,22,285,21,12,57,222,34,15,41,171,25,17,24,047,21*70
$GPGSV,3,2,12,19,35,074,33,23,20,250,38,24,79,037,35,32,11,316,25*71
$GPGSV,3,3,12,13,16,143,,20,07,226,,25,17,230,,28,00,000,*70
$GLGSV,2,1,08,02,40,312,35,12,34,268,32,01,45,213,31,21,13,116,23*63
$GLGSV,2,2,08,08,11,180,20,10,23,057,,20,23,057,,19,04,004,*65
$GPGSA,A,1,,,,,,,,,,,,,1.4,0.7,1.2*31
$GNGSA,A,1,,,,,,,,,,,,,1.4,0.7,1.2*2F
$GPVTG,155.7,T,155.7,M,1.5,N,2.8,K,A*2D
$GPRMC,084901.60,A,4538.890493,N,00009.415004,E,1.5,155.7,060421,2.1,W,A*2D
$GPGGA,084901.60,4538.890493,N,00009.415004,E,1,00,0.7,107.0,M,49.0,M,,*6A
$GPGSV,3,1,12,10,22,285,24,12,57,222,31,15,41,171,25,17,24,047,24*75
$GPGSV,3,2,12,19,35,074,31,23,20,250,38,24,79,037,40,25,17,230,26*77
$GPGSV,3,3,12,32,11,316,21,13,16,143,,20,07,226,,28,00,000,*76
$GLGSV,2,1,08,02,40,312,38,12,34,268,33,01,45,213,28,21,13,116,22*66
$GLGSV,2,2,08,08,11,180,17,10,23,057,,20,23,057,,19,04,004,*61
$GPGSA,A,1,,,,,,,,,,,,,1.1,0.7,0.8*3F
$GNGSA,A,1,,,,,,,,,,,,,1.1,0.7,0.8*21
$GPVTG,,T,,M,0.0,N,0.0,K,A*23
$GPRMC,084903.00,A,4538.889218,N,00009.417118,E,0.0,,060421,2.1,W,A*06
$GPGGA,084903.00,4538.889218,N,00009.417118,E,1,00,0.7,101.0,M,49.0,M,,*6B
$GPGSV,3,1,12,10,22,285,26,12,57,222,31,13,16,143,20,15,41,171,23*75
$GPGSV,3,2,12,17,24,047,22,19,35,074,32,20,07,226,17,23,20,250,38*7E
$GPGSV,3,3,12,24,79,037,37,25,17,230,25,32,11,316,23,28,00,000,*7B
$GLGSV,2,1,08,10,23,057,18,02,40,312,36,12,34,268,36,01,45,213,26*6F
$GLGSV,2,2,08,21,13,116,21,08,11,180,18,20,23,057,,19,04,004,*68
$GPGSA,A,1,,,,,,,,,,,,,1.0,0.7,0.8*3E
$GNGSA,A,1,,,,,,,,,,,,,1.0,0.7,0.8*20
$GPVTG,52.3,T,52.3,M,1.4,N,2.7,K,A*23
$GPRMC,084904.00,A,4538.889311,N,00009.419138,E,1.4,52.3,060421,2.1,W,A*1A
$GPGGA,084904.00,4538.889311,N,00009.419138,E,1,00,0.7,98.0,M,49.0,M,,*59
$GPGSV,3,1,12,10,22,285,26,12,57,222,36,13,16,143,24,15,41,171,24*71
$GPGSV,3,2,12,17,24,047,23,19,35,074,33,20,07,226,17,23,20,250,37*71
$GPGSV,3,3,12,24,79,037,36,25,17,230,27,32,11,316,26,28,00,000,*7D
$GLGSV,2,1,08,10,23,057,18,02,40,312,31,12,34,268,37,01,45,213,29*66
$GLGSV,2,2,08,21,13,116,22,08,11,180,19,20,23,057,,19,04,004,*6A
$GPGSA,A,1,,,,,,,,,,,,,1.0,0.7,0.8*3E
$GNGSA,A,1,,,,,,,,,,,,,1.0,0.7,0.8*20
$GPVTG,35.8,T,35.8,M,1.9,N,3.6,K,A*2E
$GPRMC,084905.00,A,4538.889412,N,00009.418708,E,1.9,35.8,060421,2.1,W,A*1C
$GPGGA,084905.00,4538.889412,N,00009.418708,E,1,00,0.7,100.0,M,49.0,M,,*68
$GPGSV,3,1,12,10,22,285,27,12,57,222,35,13,16,143,23,15,41,171,25*75
$GPGSV,3,2,12,17,24,047,22,19,35,074,29,20,07,226,17,23,20,250,39*75
$GPGSV,3,3,12,24,79,037,38,25,17,230,28,32,11,316,27,28,00,000,*7D
$GLGSV,2,1,08,10,23,057,18,02,40,312,33,12,34,268,38,01,45,213,31*62
$GLGSV,2,2,08,21,13,116,24,08,11,180,19,20,23,057,,19,04,004,*6C
$GPGSA,A,1,,,,,,,,,,,,,1.0,0.7,0.8*3E
$GNGSA,A,1,,,,,,,,,,,,,1.0,0.7,0.8*20
$GPVTG,16.9,T,16.9,M,2.0,N,3.7,K,A*25
$GPRMC,084906.00,A,4538.890513,N,00009.418670,E,2.0,16.9,060421,2.1,W,A*13
$GPGGA,084906.00,4538.890513,N,00009.418670,E,1,00,0.7,99.0,M,49.0,M,,*5C
$GPGSV,3,1,12,10,22,285,30,12,57,222,36,13,16,143,21,15,41,171,27*70
$GPGSV,3,2,12,17,24,047,22,19,35,074,21,20,07,226,17,23,20,250,35*71
$GPGSV,3,3,12,24,79,037,35,25,17,230,27,32,11,316,29,28,00,000,*71
$GLGSV,2,1,08,10,23,057,19,02,40,312,33,12,34,268,37,01,45,213,33*6E
$GLGSV,2,2,08,21,13,116,19,08,11,180,18,20,23,057,,19,04,004,*63
$GPGSA,A,1,,,,,,,,,,,,,1.0,0.7,0.8*3E
$GNGSA,A,1,,,,,,,,,,,,,1.0,0.7,0.8*20
$GPVTG,358.9,T,358.9,M,1.9,N,3.5,K,A*2D
$GPRMC,084907.00,A,4538.890262,N,00009.418914,E,1.9,358.9,060421,2.1,W,A*2D
$GPGGA,084907.00,4538.890262,N,00009.418914,E,1,00,0.7,99.0,M,49.0,M,,*51
$GPGSV,3,1,12,10,22,285,29,12,57,222,37,13,16,143,22,15,41,171,31*7D
$GPGSV,3,2,12,17,24,047,21,19,35,074,24,20,07,226,17,23,20,250,35*77
$GPGSV,3,3,12,24,79,037,34,25,17,230,29,32,11,316,24,28,00,000,*73
$GLGSV,2,1,08,10,23,057,18,02,40,312,32,12,34,268,31,01,45,213,34*6F
$GLGSV,2,2,08,21,13,116,21,08,11,180,18,20,23,057,,19,04,004,*68
$GPGSA,A,1,,,,,,,,,,,,,1.0,0.7,0.8*3E
$GNGSA,A,1,,,,,,,,,,,,,1.0,0.7,0.8*20
$GPVTG,14.7,T,14.7,M,1.3,N,2.5,K,A*26
$GPRMC,084908.00,A,4538.891005,N,00009.419055,E,1.3,14.7,060421,2.1,W,A*12
$GPGGA,084908.00,4538.891005,N,00009.419055,E,1,00,0.7,100.0,M,49.0,M,,*60
$GPGSV,3,1,12,10,22,285,30,12,57,222,37,13,16,143,22,15,41,171,34*70
$GPGSV,3,2,12,17,24,047,23,19,35,074,28,20,07,226,16,23,20,250,40*7A
$GPGSV,3,3,12,24,79,037,36,25,17,230,36,32,11,316,27,28,00,000,*7C
$GLGSV,2,1,08,10,23,057,18,02,40,312,32,12,34,268,31,01,45,213,34*6F
$GLGSV,2,2,08,21,13,116,20,08,11,180,17,20,23,057,,19,04,004,*66
$GPGSA,A,1,,,,,,,,,,,,,1.0,0.7,0.8*3E
$GNGSA,A,1,,,,,,,,,,,,,1.0,0.7,0.8*20
$GPVTG,347.6,T,347.6,M,1.9,N,3.5,K,A*2D
$GPRMC,084909.00,A,4538.891498,N,00009.418604,E,1.9,347.6,060421,2.1,W,A*2E
$GPGGA,084909.00,4538.891498,N,00009.418604,E,1,00,0.7,103.0,M,49.0,M,,*61
$GPGSV,3,1,12,10,22,285,31,12,57,222,39,13,16,143,22,15,41,171,31*7A
$GPGSV,3,2,12,17,24,047,23,19,35,074,25,20,07,226,16,23,20,250,34*74
$GPGSV,3,3,12,24,79,037,38,25,17,230,30,32,11,316,26,28,00,000,*75
$GLGSV,2,1,08,10,23,057,17,02,40,312,33,12,34,268,33,01,45,213,34*63
$GLGSV,2,2,08,21,13,116,22,08,11,180,17,20,23,057,,19,04,004,*64
$GPGSA,A,1,,,,,,,,,,,,,1.0,0.7,0.8*3E
$GNGSA,A,1,,,,,,,,,,,,,1.0,0.7,0.8*20
$GPVTG,356.9,T,356.9,M,1.7,N,3.1,K,A*27
$GPRMC,084910.00,A,4538.891865,N,00009.418139,E,1.7,356.9,060421,2.1,W,A*20
$GPGGA,084910.00,4538.891865,N,00009.418139,E,1,00,0.7,105.0,M,49.0,M,,*68
$GPGSV,3,1,11,10,22,285,29,12,57,222,41,13,16,143,22,15,41,171,29*76
$GPGSV,3,2,11,19,35,074,25,23,20,250,31,24,79,037,33,25,17,230,40*7C
$GPGSV,3,3,11,32,11,316,29,20,07,226,,28,00,000,*4E
$GLGSV,2,1,08,10,23,057,24,02,40,312,35,12,34,268,34,01,45,213,32*64
$GLGSV,2,2,08,21,13,116,23,08,11,180,17,20,23,057,,19,04,004,*65
$GPGSA,A,1,,,,,,,,,,,,,1.0,0.7,0.8*3E
$GNGSA,A,1,,,,,,,,,,,,,1.0,0.7,0.8*20
$GPVTG,342.5,T,342.5,M,2.0,N,3.6,K,A*24
$GPRMC,084911.00,A,4538.893058,N,00009.417184,E,2.0,342.5,060421,2.1,W,A*21
$GPGGA,084911.00,4538.893058,N,00009.417184,E,1,00,0.7,104.0,M,49.0,M,,*65
$GPGSV,3,1,11,10,22,285,26,12,57,222,34,13,16,143,27,15,41,171,29*7E
$GPGSV,3,2,11,19,35,074,26,23,20,250,36,24,79,037,33,25,17,230,33*7C
$GPGSV,3,3,11,17,24,047,,20,07,226,,28,00,000,*43
$GLGSV,2,1,06,02,40,312,38,12,34,268,32,01,45,213,30,20,23,057,*66
$GLGSV,2,2,06,19,04,004,,08,11,180,*6A
$GPGSA,A,1,,,,,,,,,,,,,1.0,0.7,0.8*3E
$GNGSA,A,1,,,,,,,,,,,,,1.0,0.7,0.8*20
$GPVTG,15.9,T,15.9,M,1.5,N,2.8,K,A*2D
$GPRMC,084912.00,A,4538.893429,N,00009.416958,E,1.5,15.9,060421,2.1,W,A*13
$GPGGA,084912.00,4538.893429,N,00009.416958,E,1,00,0.7,107.0,M,49.0,M,,*6F
$GPGSV,3,1,11,12,57,222,39,13,16,143,23,15,41,171,34,17,24,047,25*75
$GPGSV,3,2,11,19,35,074,23,23,20,250,36,24,79,037,34,25,17,230,29*75
$GPGSV,3,3,11,32,11,316,25,20,07,226,,28,00,000,*42
$GLGSV,2,1,08,02,40,312,37,12,34,268,38,01,45,213,27,10,23,057,*68
$GLGSV,2,2,08,20,23,057,,19,04,004,,21,13,116,,08,11,180,*62
$GPGSA,A,1,,,,,,,,,,,,,1.0,0.7,0.8*3E
$GNGSA,A,1,,,,,,,,,,,,,1.0,0.7,0.8*20
$GPVTG,9.0,T,9.0,M,2.6,N,4.8,K,A*2B
$GPRMC,084913.00,A,4538.894489,N,00009.417194,E,2.6,9.0,060421,2.1,W,A*22
$GPGGA,084913.00,4538.894489,N,00009.417194,E,1,00,0.7,108.0,M,49.0,M,,*65
$GPGSV,3,1,11,10,22,285,23,12,57,222,42,15,41,171,30,17,24,047,29*7C
$GPGSV,3,2,11,19,35,074,24,23,20,250,42,24,79,037,36,25,17,230,34*7F
$GPGSV,3,3,11,32,11,316,28,20,07,226,,28,00,000,*4F
$GLGSV,2,1,08,02,40,312,35,12,34,268,32,01,45,213,31,21,13,116,23*63
$GLGSV,2,2,08,10,23,057,,20,23,057,,19,04,004,,08,11,180,*67
$GPGSA,A,1,,,,,,,,,,,,,1.0,0.7,0.8*3E
$GNGSA,A,1,,,,,,,,,,,,,1.0,0.7,0.8*20
$GPVTG,328.5,T,328.5,M,2.2,N,4.0,K,A*27
$GPRMC,084914.00,A,4538.895109,N,00009.416788,E,2.2,328.5,060421,2.1,W,A*22
$GPGGA,084914.00,4538.895109,N,00009.416788,E,1,00,0.7,108.0,M,49.0,M,,*64
$GPGSV,3,1,11,12,57,222,37,15,41,171,29,17,24,047,25,19,35,074,28*72
$GPGSV,3,2,11,23,20,250,38,24,79,037,33,25,17,230,34,32,11,316,24*7F
$GPGSV,3,3,11,13,16,143,,20,07,226,,28,00,000,*43
$GLGSV,2,1,07,02,40,312,38,12,34,268,33,01,45,213,32,10,23,057,*67
$GLGSV,2,2,07,20,23,057,,19,04,004,,08,11,180,*5A
$GPGSA,A,1,,,,,,,,,,,,,1.0,0.7,0.8*3E
$GNGSA,A,1,,,,,,,,,,,,,1.0,0.7,0.8*20
$GPVTG,350.3,T,350.3,M,2.5,N,4.6,K,A*26
$GPRMC,084915.00,A,4538.895929,N,00009.416350,E,2.5,350.3,060421,2.1,W,A*26
$GPGGA,084915.00,4538.895929,N,00009.416350,E,1,00,0.7,109.0,M,49.0,M,,*6F
$GPGSV,3,1,12,12,57,222,39,15,41,171,34,17,24,047,32,19,35,074,31*7D
$GPGSV,3,2,12,20,07,226,27,23,20,250,38,24,79,037,39,25,17,230,41*71
$GPGSV,3,3,12,32,11,316,27,10,22,285,,13,16,143,,28,00,000,*7D
$GLGSV,2,1,08,02,40,312,35,12,34,268,37,01,45,213,38,10,23,057,*6B
$GLGSV,2,2,08,20,23,057,,19,04,004,,21,13,116,,08,11,180,*62
$GPGSA,A,1,,,,,,,,,,,,,1.0,0.6,0.7*30
$GNGSA,A,1,,,,,,,,,,,,,1.0,0.6,0.7*2E
$GPVTG,341.0,T,341.0,M,3.0,N,5.6,K,A*23
$GPRMC,084916.00,A,4538.897021,N,00009.416134,E,3.0,341.0,060421,2.1,W,A*21
$GPGGA,084916.00,4538.897021,N,00009.416134,E,1,00,0.6,104.0,M,49.0,M,,*63
$GPGSV,3,1,12,10,22,285,24,12,57,222,36,13,16,143,23,15,41,171,33*72
$GPGSV,3,2,12,17,24,047,27,19,35,074,24,20,07,226,31,23,20,250,35*75
$GPGSV,3,3,12,24,79,037,38,25,17,230,41,32,11,316,27,28,00,000,*72
$GLGSV,2,1,08,02,40,312,33,12,34,268,26,01,45,213,27,21,13,116,28*6C
$GLGSV,2,2,08,10,23,057,,20,23,057,,19,04,004,,08,11,180,*67
$GPGSA,A,1,,,,,,,,,,,,,1.0,0.7,0.7*31
$GNGSA,A,1,,,,,,,,,,,,,1.0,0.7,0.7*2F
$GPVTG,344.6,T,344.6,M,2.0,N,3.8,K,A*2A
$GPRMC,084917.00,A,4538.897788,N,00009.415945,E,2.0,344.6,060421,2.1,W,A*2B
$GPGGA,084917.00,4538.897788,N,00009.415945,E,1,00,0.7,104.0,M,49.0,M,,*6A
$GPGSV,3,1,11,12,57,222,42,13,16,143,23,15,41,171,31,17,24,047,24*7D
$GPGSV,3,2,11,19,35,074,25,20,07,226,36,23,20,250,25,24,79,037,39*71
$GPGSV,3,3,11,25,17,230,31,32,11,316,30,28,00,000,*47
$GLGSV,2,1,07,10,23,057,24,02,40,312,38,12,34,268,33,01,45,213,32*61
$GLGSV,2,2,07,20,23,057,,19,04,004,,08,11,180,*5A
$GPGSA,A,1,,,,,,,,,,,,,1.0,0.6,0.7*30
$GNGSA,A,1,,,,,,,,,,,,,1.0,0.6,0.7*2E
$GPVTG,346.3,T,346.3,M,0.6,N,1.1,K,A*25
$GPRMC,084918.00,A,4538.898194,N,00009.415911,E,0.6,346.3,060421,2.1,W,A*22
$GPGGA,084918.00,4538.898194,N,00009.415911,E,1,00,0.6,104.0,M,49.0,M,,*61
$GPGSV,3,1,11,10,22,285,24,12,57,222,37,15,41,171,28,17,24,047,31*79
$GPGSV,3,2,11,19,35,074,24,20,07,226,35,23,20,250,31,24,79,037,39*76
$GPGSV,3,3,11,25,17,230,40,32,11,316,30,28,00,000,*41
$GLGSV,2,1,08,10,23,057,26,02,40,312,34,12,34,268,27,01,45,213,33*64
$GLGSV,2,2,08,21,13,116,24,20,23,057,,19,04,004,,08,11,180,*64
$GPGSA,A,1,,,,,,,,,,,,,1.0,0.6,0.7*30
$GNGSA,A,1,,,,,,,,,,,,,1.0,0.6,0.7*2E
$GPVTG,2.0,T,2.0,M,2.6,N,4.8,K,A*2B
$GPRMC,084919.00,A,4538.898952,N,00009.416039,E,2.6,2.0,060421,2.1,W,A*23
$GPGGA,084919.00,4538.898952,N,00009.416039,E,1,00,0.6,102.0,M,49.0,M,,*64
$GPGSV,3,1,11,10,22,285,26,12,57,222,39,15,41,171,30,17,24,047,31*7C
$GPGSV,3,2,11,20,07,226,36,23,20,250,27,24,79,037,39,25,17,230,36*7C
$GPGSV,3,3,11,32,11,316,30,13,16,143,,28,00,000,*46
$GLGSV,2,1,07,10,23,057,25,02,40,312,31,12,34,268,34,01,45,213,33*6F
$GLGSV,2,2,07,20,23,057,,19,04,004,,08,11,180,*5A
$GPGSA,A,1,,,,,,,,,,,,,1.0,0.6,0.7*30
$GNGSA,A,1,,,,,,,,,,,,,1.0,0.6,0.7*2E
$GPVTG,9.9,T,9.9,M,2.3,N,4.3,K,A*25
$GPRMC,084920.00,A,4538.899769,N,00009.416134,E,2.3,9.9,060421,2.1,W,A*25
$GPGGA,084920.00,4538.899769,N,00009.416134,E,1,00,0.6,103.0,M,49.0,M,,*64
$GPGSV,3,1,12,10,22,285,25,12,57,222,39,13,16,143,24,15,41,171,31*79
$GPGSV,3,2,12,17,24,047,28,19,35,074,28,20,07,226,35,23,20,250,23*75
$GPGSV,3,3,12,24,79,037,31,25,17,230,34,32,11,316,34,28,00,000,*7B
$GLGSV,2,1,08,10,23,057,23,02,40,312,34,12,34,268,30,01,45,213,32*66
$GLGSV,2,2,08,21,13,116,23,20,23,057,,19,04,004,,08,11,180,*63
$GPGSA,A,1,,,,,,,,,,,,,1.0,0.6,0.7*30
$GNGSA,A,1,,,,,,,,,,,,,1.0,0.6,0.7*2E
$GPVTG,4.0,T,4.0,M,1.0,N,1.8,K,A*2B
$GPRMC,084921.00,A,4538.900282,N,00009.416233,E,1.0,4.0,060421,2.1,W,A*25
$GPGGA,084921.00,4538.900282,N,00009.416233,E,1,00,0.6,103.0,M,49.0,M,,*60
$GPGSV,3,1,10,12,57,222,41,13,16,143,23,15,41,171,36,19,35,074,27*75
$GPGSV,3,2,10,20,07,226,33,23,20,250,31,24,79,037,40,25,17,230,34*73
$GPGSV,3,3,10,32,11,316,34,28,00,000,*70
$GLGSV,2,1,06,10,23,057,24,02,40,312,33,01,45,213,33,20,23,057,*63
$GLGSV,2,2,06,19,04,004,,08,11,180,*6A
$GPGSA,A,1,,,,,,,,,,,,,1.0,0.6,0.7*30
$GNGSA,A,1,,,,,,,,,,,,,1.0,0.6,0.7*2E
$GPVTG,357.6,T,357.6,M,2.0,N,3.7,K,A*25
$GPRMC,084922.00,A,4538.900952,N,00009.416013,E,2.0,357.6,060421,2.1,W,A*20
$GPGGA,084922.00,4538.900952,N,00009.416013,E,1,00,0.6,101.0,M,49.0,M,,*67
$GPGSV,3,1,11,10,22,285,24,12,57,222,39,15,41,171,36,19,35,074,25*73
$GPGSV,3,2,11,20,07,226,33,23,20,250,25,24,79,037,39,25,17,230,39*74
$GPGSV,3,3,11,32,11,316,30,17,24,047,,28,00,000,*46
$GLGSV,2,1,08,10,23,057,28,02,40,312,31,12,34,268,32,01,45,213,35*6D
$GLGSV,2,2,08,20,23,057,,19,04,004,,21,13,116,,08,11,180,*62
$GPGSA,A,1,,,,,,,,,,,,,1.0,0.6,0.7*30
$GNGSA,A,1,,,,,,,,,,,,,1.0,0.6,0.7*2E
$GPVTG,354.8,T,354.8,M,2.3,N,4.3,K,A*25
$GPRMC,084923.00,A,4538.901718,N,00009.415883,E,2.3,354.8,060421,2.1,W,A*2C
$GPGGA,084923.00,4538.901718,N,00009.415883,E,1,00,0.6,100.0,M,49.0,M,,*64
$GPGSV,3,1,10,12,57,222,39,15,41,171,30,17,24,047,24,20,07,226,32*71
$GPGSV,3,2,10,23,20,250,30,24,79,037,40,25,17,230,33,32,11,316,28*79
$GPGSV,3,3,10,13,16,143,,28,00,000,*71
$GLGSV,2,1,07,02,40,312,38,12,34,268,32,01,45,213,34,21,13,116,24*63
$GLGSV,2,2,07,20,23,057,,19,04,004,,08,11,180,*5A
$GPGSA,A,1,,,,,,,,,,,,,1.0,0.6,0.7*30
$GNGSA,A,1,,,,,,,,,,,,,1.0,0.6,0.7*2E
$GPVTG,351.7,T,351.7,M,2.3,N,4.3,K,A*25
$GPRMC,084924.00,A,4538.902396,N,00009.415652,E,2.3,351.7,060421,2.1,W,A*22
$GPGGA,084924.00,4538.902396,N,00009.415652,E,1,00,0.6,100.0,M,49.0,M,,*60
$GPGSV,3,1,11,12,57,222,40,13,16,143,26,15,41,171,29,17,24,047,30*76
$GPGSV,3,2,11,20,07,226,41,24,79,037,37,25,17,230,33,32,11,316,27*76
$GPGSV,3,3,11,10,22,285,,19,35,074,,28,00,000,*40
$GLGSV,2,1,08,10,23,057,25,02,40,312,35,12,34,268,33,01,45,213,32*62
$GLGSV,2,2,08,21,13,116,26,20,23,057,,19,04,004,,08,11,180,*66
$GPGSA,A,1,,,,,,,,,,,,,1.0,0.6,0.7*30
$GNGSA,A,1,,,,,,,,,,,,,1.0,0.6,0.7*2E
$GPVTG,5.7,T,5.7,M,2.3,N,4.3,K,A*25
$GPRMC,084925.00,A,4538.903215,N,00009.415623,E,2.3,5.7,060421,2.1,W,A*2C
$GPGGA,084925.00,4538.903215,N,00009.415623,E,1,00,0.6,100.0,M,49.0,M,,*6C
$GPGSV,3,1,11,12,57,222,40,13,16,143,26,15,41,171,29,17,24,047,30*76
$GPGSV,3,2,11,20,07,226,41,24,79,037,37,25,17,230,33,32,11,316,27*76
$GPGSV,3,3,11,10,22,285,,19,35,074,,28,00,000,*40
$GLGSV,2,1,08,10,23,057,25,02,40,312,35,12,34,268,33,01,45,213,32*62
$GLGSV,2,2,08,21,13,116,26,20,23,057,,19,04,004,,08,11,180,*66
$GPGSA,A,1,,,,,,,,,,,,,1.0,0.6,0.7*30
$GNGSA,A,1,,,,,,,,,,,,,1.0,0.6,0.7*2E
$GPVTG,19.5,T,19.5,M,2.3,N,4.2,K,A*24
$GPRMC,084926.00,A,4538.903962,N,00009.415874,E,2.3,19.5,060421,2.1,W,A*17
$GPGGA,084926.00,4538.903962,N,00009.415874,E,1,00,0.6,100.0,M,49.0,M,,*68
$GPGSV,3,1,10,12,57,222,30,15,41,171,31,17,24,047,24,19,35,074,27*73
$GPGSV,3,2,10,20,07,226,26,24,79,037,26,32,11,316,23,10,22,285,*7C
$GPGSV,3,3,10,23,20,250,,28,00,000,*76
$GLGSV,2,1,08,10,23,057,21,02,40,312,31,12,34,268,22,01,45,213,26*67
$GLGSV,2,2,08,20,23,057,,19,04,004,,21,13,116,,08,11,180,*62
$GPGSA,A,1,,,,,,,,,,,,,1.0,0.6,0.7*30
$GNGSA,A,1,,,,,,,,,,,,,1.0,0.6,0.7*2E
$GPVTG,305.8,T,305.8,M,3.1,N,5.8,K,A*2C
$GPRMC,084927.00,A,4538.904981,N,00009.415002,E,3.1,305.8,060421,2.1,W,A*25
$GPGGA,084927.00,4538.904981,N,00009.415002,E,1,00,0.6,101.0,M,49.0,M,,*6B
$GPGSV,3,1,12,12,57,222,31,15,41,171,32,17,24,047,25,19,35,074,25*70
$GPGSV,3,2,12,20,07,226,26,24,79,037,25,25,17,230,24,32,11,316,25*73
$GPGSV,3,3,12,10,22,285,,13,16,143,,23,20,250,,28,00,000,*79
$GLGSV,2,1,06,02,40,312,27,01,45,213,29,20,23,057,,19,04,004,*61
$GLGSV,2,2,06,21,13,116,,08,11,180,*65
$GPGSA,A,1,,,,,,,,,,,,,1.0,0.6,0.7*30
$GNGSA,A,1,,,,,,,,,,,,,1.0,0.6,0.7*2E
$GPVTG,350.9,T,350.9,M,3.4,N,6.3,K,A*21
$GPRMC,084928.00,A,4538.906120,N,00009.414007,E,3.4,350.9,060421,2.1,W,A*2B
$GPGGA,084928.00,4538.906120,N,00009.414007,E,1,00,0.6,102.0,M,49.0,M,,*62
$GPGSV,3,1,11,12,57,222,33,15,41,171,30,19,35,074,26,20,07,226,23*76
$GPGSV,3,2,11,24,79,037,25,25,17,230,21,32,11,316,22,10,22,285,*7B
$GPGSV,3,3,11,13,16,143,,23,20,250,,28,00,000,*44
$GLGSV,2,1,08,02,40,312,29,01,45,213,28,10,23,057,,12,34,268,*63
$GLGSV,2,2,08,20,23,057,,19,04,004,,21,13,116,,08,11,180,*62
$GPGSA,A,1,,,,,,,,,,,,,1.0,0.7,0.7*31
$GNGSA,A,1,,,,,,,,,,,,,1.0,0.7,0.7*2F
$GPVTG,332.8,T,332.8,M,6.2,N,11.4,K,A*13
$GPRMC,084929.00,A,4538.907631,N,00009.412476,E,6.2,332.8,060421,2.1,W,A*2E
$GPGGA,084929.00,4538.907631,N,00009.412476,E,1,00,0.7,101.0,M,49.0,M,,*63
$GPGSV,3,1,09,12,57,222,32,15,41,171,30,17,24,047,21,19,35,074,25*7F
$GPGSV,3,2,09,24,79,037,26,10,22,285,,13,16,143,,23,20,250,*70
$GPGSV,3,3,09,28,00,000,*4A
$GLGSV,2,1,08,02,40,312,24,12,34,268,21,01,45,213,28,10,23,057,*6D
$GLGSV,2,2,08,20,23,057,,19,04,004,,21,13,116,,08,11,180,*62
$GPGSA,A,1,,,,,,,,,,,,,1.0,0.7,0.7*31
$GNGSA,A,1,,,,,,,,,,,,,1.0,0.7,0.7*2F
$GPVTG,336.7,T,336.7,M,3.3,N,6.1,K,A*24
$GPRMC,084930.00,A,4538.908944,N,00009.410931,E,3.3,336.7,060421,2.1,W,A*27
$GPGGA,084930.00,4538.908944,N,00009.410931,E,1,00,0.7,101.0,M,49.0,M,,*65
$GPGSV,3,1,12,10,22,285,22,12,57,222,31,15,41,171,33,17,24,047,22*72
$GPGSV,3,2,12,19,35,074,23,24,79,037,28,32,11,316,22,13,16,143,*77
$GPGSV,3,3,12,20,07,226,,23,20,250,,25,17,230,,28,00,000,*77
$GLGSV,2,1,07,02,40,312,26,01,45,213,28,10,23,057,,20,23,057,*6A
$GLGSV,2,2,07,19,04,004,,21,13,116,,08,11,180,*5C
$GPGSA,A,1,,,,,,,,,,,,,1.0,0.7,0.8*3E
$GNGSA,A,1,,,,,,,,,,,,,1.0,0.7,0.8*20
$GPVTG,339.2,T,339.2,M,3.2,N,5.9,K,A*2E
$GPRMC,084931.00,A,4538.909958,N,00009.409787,E,3.2,339.2,060421,2.1,W,A*2A
$GPGGA,084931.00,4538.909958,N,00009.409787,E,1,00,0.7,101.0,M,49.0,M,,*63
$GPGSV,3,1,10,12,57,222,34,15,41,171,33,17,24,047,21,24,79,037,27*71
$GPGSV,3,2,10,32,11,316,24,13,16,143,,20,07,226,,23,20,250,*7E
$GPGSV,3,3,10,25,17,230,,28,00,000,*72
$GLGSV,2,1,08,02,40,312,26,01,45,213,32,10,23,057,,12,34,268,*67
$GLGSV,2,2,08,20,23,057,,19,04,004,,21,13,116,,08,11,180,*62
$GPGSA,A,1,,,,,,,,,,,,,1.1,0.8,0.8*30
$GNGSA,A,1,,,,,,,,,,,,,1.1,0.8,0.8*2E
$GPVTG,4.8,T,4.8,M,3.3,N,6.1,K,A*24
$GPRMC,084932.00,A,4538.911028,N,00009.409244,E,3.3,4.8,060421,2.1,W,A*22
$GPGGA,084932.00,4538.911028,N,00009.409244,E,1,00,0.8,100.0,M,49.0,M,,*63
$GPGSV,3,1,12,12,57,222,32,15,41,171,32,17,24,047,22,24,79,037,25*75
$GPGSV,3,2,12,32,11,316,26,10,22,285,,13,16,143,,19,35,074,*7A
$GPGSV,3,3,12,20,07,226,,23,20,250,,25,17,230,,28,00,000,*77
$GLGSV,2,1,08,02,40,312,34,12,34,268,22,01,45,213,31,10,23,057,*67
$GLGSV,2,2,08,20,23,057,,19,04,004,,21,13,116,,08,11,180,*62
$GPGSA,A,1,,,,,,,,,,,,,1.2,0.8,0.8*33
$GNGSA,A,1,,,,,,,,,,,,,1.2,0.8,0.8*2D
$GPVTG,26.7,T,26.7,M,3.2,N,5.9,K,A*2E
$GPRMC,084933.00,A,4538.911881,N,00009.409390,E,3.2,26.7,060421,2.1,W,A*1E
$GPGGA,084933.00,4538.911881,N,00009.409390,E,1,00,0.8,100.0,M,49.0,M,,*61
$GPGSV,3,1,10,12,57,222,30,15,41,171,32,24,79,037,28,10,22,285,*75
$GPGSV,3,2,10,13,16,143,,19,35,074,,20,07,226,,23,20,250,*70
$GPGSV,3,3,10,25,17,230,,28,00,000,*72
$GLGSV,2,1,08,02,40,312,30,12,34,268,22,01,45,213,28,10,23,057,*6B
$GLGSV,2,2,08,20,23,057,,19,04,004,,21,13,116,,08,11,180,*62
$GPGSA,A,1,,,,,,,,,,,,,1.2,0.8,0.8*33
$GNGSA,A,1,,,,,,,,,,,,,1.2,0.8,0.8*2D
$GPVTG,30.3,T,30.3,M,2.8,N,5.2,K,A*2E
$GPRMC,084934.00,A,4538.912546,N,00009.409729,E,2.8,30.3,060421,2.1,W,A*12
$GPGGA,084934.00,4538.912546,N,00009.409729,E,1,00,0.8,100.0,M,49.0,M,,*65
$GPGSV,3,1,12,12,57,222,35,15,41,171,33,17,24,047,25,24,79,037,27*76
$GPGSV,3,2,12,10,22,285,,13,16,143,,19,35,074,,20,07,226,*78
$GPGSV,3,3,12,23,20,250,,25,17,230,,28,00,000,,32,11,316,*71
$GLGSV,2,1,07,02,40,312,29,01,45,213,30,10,23,057,,20,23,057,*6C
$GLGSV,2,2,07,19,04,004,,21,13,116,,08,11,180,*5C
$GPGSA,A,1,,,,,,,,,,,,,1.3,0.9,0.9*32
$GNGSA,A,1,,,,,,,,,,,,,1.3,0.9,0.9*2C
$GPVTG,16.3,T,16.3,M,3.0,N,5.5,K,A*20
$GPRMC,084935.00,A,4538.913140,N,00009.409654,E,3.0,16.3,060421,2.1,W,A*16
$GPGGA,084935.00,4538.913140,N,00009.409654,E,1,00,0.9,101.0,M,49.0,M,,*6C
$GPGSV,3,1,12,12,57,222,35,15,41,171,33,17,24,047,23,24,79,037,29*7E
$GPGSV,3,2,12,10,22,285,,13,16,143,,19,35,074,,20,07,226,*78
$GPGSV,3,3,12,23,20,250,,25,17,230,,28,00,000,,32,11,316,*71
$GLGSV,2,1,08,10,23,057,27,02,40,312,31,01,45,213,30,12,34,268,*66
$GLGSV,2,2,08,20,23,057,,19,04,004,,21,13,116,,08,11,180,*62
$GPGSA,A,1,,,,,,,,,,,,,1.2,0.9,0.9*33
$GNGSA,A,1,,,,,,,,,,,,,1.2,0.9,0.9*2D
$GPVTG,3.5,T,3.5,M,3.5,N,6.4,K,A*27
$GPRMC,084936.00,A,4538.913659,N,00009.409024,E,3.5,3.5,060421,2.1,W,A*2C
$GPGGA,084936.00,4538.913659,N,00009.409024,E,1,00,0.9,101.0,M,49.0,M,,*61
$GPGSV,3,1,11,10,22,285,22,12,57,222,31,15,41,171,28,24,79,037,29*7F
$GPGSV,3,2,11,32,11,316,20,13,16,143,,19,35,074,,20,07,226,*72
$GPGSV,3,3,11,23,20,250,,25,17,230,,28,00,000,*47
$GLGSV,2,1,08,10,23,057,22,02,40,312,23,12,34,268,21,01,45,213,28*6A
$GLGSV,2,2,08,20,23,057,,19,04,004,,21,13,116,,08,11,180,*62
$GPGSA,A,1,,,,,,,,,,,,,1.3,0.9,0.9*32
$GNGSA,A,1,,,,,,,,,,,,,1.3,0.9,0.9*2C
$GPVTG,5.4,T,5.4,M,3.1,N,5.8,K,A*2C
$GPRMC,084937.00,A,4538.914534,N,00009.408574,E,3.1,5.4,060421,2.1,W,A*20
$GPGGA,084937.00,4538.914534,N,00009.408574,E,1,00,0.9,101.0,M,49.0,M,,*6E
$GPGSV,3,1,12,10,22,285,20,12,57,222,31,15,41,171,25,17,24,047,22*77
$GPGSV,3,2,12,24,79,037,30,32,11,316,20,13,16,143,,19,35,074,*7D
$GPGSV,3,3,12,20,07,226,,23,20,250,,25,17,230,,28,00,000,*77
$GLGSV,2,1,08,10,23,057,22,02,40,312,25,12,34,268,23,01,45,213,27*61
$GLGSV,2,2,08,20,23,057,,19,04,004,,21,13,116,,08,11,180,*62
$GPGSA,A,1,,,,,,,,,,,,,1.3,0.9,0.9*32
$GNGSA,A,1,,,,,,,,,,,,,1.3,0.9,0.9*2C
$GPVTG,11.8,T,11.8,M,3.4,N,6.3,K,A*21
$GPRMC,084938.00,A,4538.915336,N,00009.408398,E,3.4,11.8,060421,2.1,W,A*12
$GPGGA,084938.00,4538.915336,N,00009.408398,E,1,00,0.9,101.0,M,49.0,M,,*60
$GPGSV,3,1,12,10,22,285,19,12,57,222,32,13,16,143,17,15,41,171,29*74
$GPGSV,3,2,12,17,24,047,24,23,20,250,18,24,79,037,28,32,11,316,16*77
$GPGSV,3,3,12,19,35,074,,20,07,226,,25,17,230,,28,00,000,*7E
$GLGSV,2,1,08,10,23,057,20,02,40,312,29,12,34,268,20,01,45,213,28*63
$GLGSV,2,2,08,20,23,057,,19,04,004,,21,13,116,,08,11,180,*62
$GPGSA,A,1,,,,,,,,,,,,,1.1,0.8,0.8*30
$GNGSA,A,1,,,,,,,,,,,,,1.1,0.8,0.8*2E
$GPVTG,11.3,T,11.3,M,2.6,N,4.8,K,A*2B
$GPRMC,084939.00,A,4538.916049,N,00009.408279,E,2.6,11.3,060421,2.1,W,A*1D
$GPGGA,084939.00,4538.916049,N,00009.408279,E,1,00,0.8,103.0,M,49.0,M,,*64
$GPGSV,3,1,12,10,22,285,22,12,57,222,30,13,16,143,17,15,41,171,30*76
$GPGSV,3,2,12,17,24,047,24,19,35,074,19,23,20,250,16,24,79,037,28*7E
$GPGSV,3,3,12,32,11,316,16,20,07,226,,25,17,230,,28,00,000,*71
$GLGSV,2,1,08,10,23,057,22,02,40,312,29,12,34,268,21,01,45,213,28*60
$GLGSV,2,2,08,20,23,057,,19,04,004,,21,13,116,,08,11,180,*62
$GPGSA,A,1,,,,,,,,,,,,,1.1,0.7,0.8*3F
$GNGSA,A,1,,,,,,,,,,,,,1.1,0.7,0.8*21
$GPVTG,1.4,T,1.4,M,3.3,N,6.2,K,A*27
$GPRMC,084940.00,A,4538.916669,N,00009.407689,E,3.3,1.4,060421,2.1,W,A*21
$GPGGA,084940.00,4538.916669,N,00009.407689,E,1,00,0.7,102.0,M,49.0,M,,*64
$GPGSV,3,1,12,10,22,285,21,12,57,222,28,13,16,143,16,15,41,171,30*7D
$GPGSV,3,2,12,17,24,047,21,19,35,074,27,23,20,250,15,24,79,037,30*7C
$GPGSV,3,3,12,32,11,316,16,20,07,226,,25,17,230,,28,00,000,*71
$GLGSV,2,1,08,10,23,057,24,02,40,312,30,12,34,268,19,01,45,213,28*65
$GLGSV,2,2,08,20,23,057,,19,04,004,,21,13,116,,08,11,180,*62
$GPGSA,A,1,,,,,,,,,,,,,1.1,0.7,0.8*3F
$GNGSA,A,1,,,,,,,,,,,,,1.1,0.7,0.8*21
$GPVTG,350.5,T,350.5,M,2.1,N,3.9,K,A*2A
$GPRMC,084941.00,A,4538.917048,N,00009.406889,E,2.1,350.5,060421,2.1,W,A*2E
$GPGGA,084941.00,4538.917048,N,00009.406889,E,1,00,0.7,103.0,M,49.0,M,,*6F
$GPGSV,3,1,12,10,22,285,21,12,57,222,28,13,16,143,16,15,41,171,30*7D
$GPGSV,3,2,12,17,24,047,21,19,35,074,27,23,20,250,15,24,79,037,30*7C
$GPGSV,3,3,12,32,11,316,16,20,07,226,,25,17,230,,28,00,000,*71
$GLGSV,2,1,08,10,23,057,24,02,40,312,30,12,34,268,19,01,45,213,28*65
$GLGSV,2,2,08,20,23,057,,19,04,004,,21,13,116,,08,11,180,*62
$GPGSA,A,1,,,,,,,,,,,,,1.1,0.7,0.8*3F
$GNGSA,A,1,,,,,,,,,,,,,1.1,0.7,0.8*21
$GPVTG,342.9,T,342.9,M,2.1,N,3.9,K,A*2A
$GPRMC,084942.00,A,4538.917316,N,00009.406088,E,2.1,342.9,060421,2.1,W,A*23
$GPGGA,084942.00,4538.917316,N,00009.406088,E,1,00,0.7,103.0,M,49.0,M,,*6D
$GPGSV,3,1,12,10,22,285,27,12,57,222,33,13,16,143,16,15,41,171,30*71
$GPGSV,3,2,12,17,24,047,26,19,35,074,28,23,20,250,14,24,79,037,27*73
$GPGSV,3,3,12,32,11,316,16,20,07,226,,25,17,230,,28,00,000,*71
$GLGSV,2,1,08,10,23,057,22,02,40,312,25,12,34,268,21,01,45,213,27*63
$GLGSV,2,2,08,20,23,057,,19,04,004,,21,13,116,,08,11,180,*62
$GPGSA,A,1,,,,,,,,,,,,,1.1,0.7,0.8*3F
$GNGSA,A,1,,,,,,,,,,,,,1.1,0.7,0.8*21
$GPVTG,350.0,T,350.0,M,1.3,N,2.4,K,A*27
$GPRMC,084943.00,A,4538.917321,N,00009.405231,E,1.3,350.0,060421,2.1,W,A*2E
$GPGGA,084943.00,4538.917321,N,00009.405231,E,1,00,0.7,106.0,M,49.0,M,,*6E
$GPGSV,3,1,12,10,22,285,25,12,57,222,34,15,41,171,32,17,24,047,24*77
$GPGSV,3,2,12,19,35,074,26,24,79,037,28,13,16,143,,20,07,226,*74
$GPGSV,3,3,12,23,20,250,,25,17,230,,28,00,000,,32,11,316,*71
$GLGSV,2,1,08,10,23,057,21,02,40,312,25,12,34,268,26,01,45,213,28*68
$GLGSV,2,2,08,20,23,057,,19,04,004,,21,13,116,,08,11,180,*62
$GPGSA,A,1,,,,,,,,,,,,,1.1,0.7,0.8*3F
$GNGSA,A,1,,,,,,,,,,,,,1.1,0.7,0.8*21
$GPVTG,343.8,T,343.8,M,3.6,N,6.6,K,A*26
$GPRMC,084944.00,A,4538.917909,N,00009.404686,E,3.6,343.8,060421,2.1,W,A*2D
$GPGGA,084944.00,4538.917909,N,00009.404686,E,1,00,0.7,105.0,M,49.0,M,,*63
$GPGSV,3,1,11,10,22,285,25,12,57,222,33,15,41,171,30,19,35,074,27*7C
$GPGSV,3,2,11,24,79,037,27,13,16,143,,20,07,226,,23,20,250,*75
$GPGSV,3,3,11,25,17,230,,28,00,000,,32,11,316,*46
$GLGSV,2,1,08,10,23,057,28,02,40,312,32,12,34,268,23,01,45,213,31*6A
$GLGSV,2,2,08,08,11,180,23,20,23,057,,19,04,004,,21,13,116,*63
$GPGSA,A,1,,,,,,,,,,,,,1.1,0.7,0.8*3F
$GNGSA,A,1,,,,,,,,,,,,,1.1,0.7,0.8*21
$GPVTG,343.9,T,343.9,M,4.4,N,8.1,K,A*2A
$GPRMC,084945.00,A,4538.918872,N,00009.403957,E,4.4,343.9,060421,2.1,W,A*2E
$GPGGA,084945.00,4538.918872,N,00009.403957,E,1,00,0.7,103.0,M,49.0,M,,*62
$GPGSV,3,1,11,10,22,285,25,12,57,222,33,15,41,171,30,19,35,074,27*7C
$GPGSV,3,2,11,24,79,037,27,13,16,143,,20,07,226,,23,20,250,*75
$GPGSV,3,3,11,25,17,230,,28,00,000,,32,11,316,*46
$GLGSV,2,1,08,10,23,057,28,02,40,312,32,12,34,268,23,01,45,213,31*6A
$GLGSV,2,2,08,08,11,180,23,20,23,057,,19,04,004,,21,13,116,*63
$GPGSA,A,1,,,,,,,,,,,,,1.1,0.7,0.8*3F
$GNGSA,A,1,,,,,,,,,,,,,1.1,0.7,0.8*21
$GPVTG,343.7,T,343.7,M,4.4,N,8.1,K,A*2A
$GPRMC,084946.00,A,4538.919922,N,00009.403075,E,4.4,343.7,060421,2.1,W,A*2F
$GPGGA,084946.00,4538.919922,N,00009.403075,E,1,00,0.7,104.0,M,49.0,M,,*6A
$GPGSV,3,1,12,10,22,285,25,12,57,222,29,15,41,171,31,17,24,047,23*7F
$GPGSV,3,2,12,19,35,074,23,24,79,037,26,13,16,143,,20,07,226,*7F
$GPGSV,3,3,12,23,20,250,,25,17,230,,28,00,000,,32,11,316,*71
$GLGSV,2,1,06,10,23,057,23,02,40,312,27,01,45,213,25,08,11,180,21*65
$GLGSV,2,2,06,20,23,057,,19,04,004,*6A
$GPGSA,A,1,,,,,,,,,,,,,1.0,0.7,0.8*3E
$GNGSA,A,1,,,,,,,,,,,,,1.0,0.7,0.8*20
$GPVTG,343.6,T,343.6,M,1.3,N,2.4,K,A*27
$GPRMC,084947.00,A,4538.920543,N,00009.402286,E,1.3,343.6,060421,2.1,W,A*23
$GPGGA,084947.00,4538.920543,N,00009.402286,E,1,00,0.7,104.0,M,49.0,M,,*65
$GPGSV,3,1,12,10,22,285,27,12,57,222,26,15,41,171,28,17,24,047,23*7A
$GPGSV,3,2,12,19,35,074,21,24,79,037,26,13,16,143,,20,07,226,*7D
$GPGSV,3,3,12,23,20,250,,25,17,230,,28,00,000,,32,11,316,*71
$GLGSV,2,1,08,10,23,057,24,02,40,312,24,12,34,268,21,01,45,213,23*60
$GLGSV,2,2,08,08,11,180,24,20,23,057,,19,04,004,,21,13,116,*64
$GPGSA,A,1,,,,,,,,,,,,,1.1,0.8,0.8*30
$GNGSA,A,1,,,,,,,,,,,,,1.1,0.8,0.8*2E
$GPVTG,338.9,T,338.9,M,2.1,N,3.9,K,A*2A
$GPRMC,084948.00,A,4538.920749,N,00009.401765,E,2.1,338.9,060421,2.1,W,A*2D
$GPGGA,084948.00,4538.920749,N,00009.401765,E,1,00,0.8,105.0,M,49.0,M,,*67
$GPGSV,3,1,12,10,22,285,31,12,57,222,29,15,41,171,27,17,24,047,22*7C
$GPGSV,3,2,12,19,35,074,22,23,20,250,22,24,79,037,25,13,16,143,*7A
$GPGSV,3,3,12,20,07,226,,25,17,230,,28,00,000,,32,11,316,*76
$GLGSV,2,1,06,10,23,057,26,02,40,312,25,08,11,180,23,20,23,057,*66
$GLGSV,2,2,06,19,04,004,,21,13,116,*6C
$GPGSA,A,1,,,,,,,,,,,,,1.1,0.7,0.8*3F
$GNGSA,A,1,,,,,,,,,,,,,1.1,0.7,0.8*21
$GPVTG,345.3,T,345.3,M,2.4,N,4.5,K,A*24
$GPRMC,084949.00,A,4538.921258,N,00009.401599,E,2.4,345.3,060421,2.1,W,A*2C
$GPGGA,084949.00,4538.921258,N,00009.401599,E,1,00,0.7,105.0,M,49.0,M,,*6C
$GPGSV,3,1,11,10,22,285,32,12,57,222,32,15,41,171,26,17,24,047,24*71
$GPGSV,3,2,11,19,35,074,23,24,79,037,28,13,16,143,,20,07,226,*72
$GPGSV,3,3,11,25,17,230,,28,00,000,,32,11,316,*46
$GLGSV,2,1,07,10,23,057,28,02,40,312,25,12,34,268,,01,45,213,*60
$GLGSV,2,2,07,20,23,057,,19,04,004,,21,13,116,*5C
$GPGSA,A,1,,,,,,,,,,,,,1.1,0.7,0.8*3F
$GNGSA,A,1,,,,,,,,,,,,,1.1,0.7,0.8*21
$GPVTG,347.3,T,347.3,M,3.5,N,6.5,K,A*26
$GPRMC,084950.00,A,4538.921985,N,00009.401087,E,3.5,347.3,060421,2.1,W,A*27
$GPGGA,084950.00,4538.921985,N,00009.401087,E,1,00,0.7,105.0,M,49.0,M,,*65
$GPGSV,3,1,12,10,22,285,30,12,57,222,31,15,41,171,28,17,24,047,23*7A
$GPGSV,3,2,12,19,35,074,25,24,79,037,28,13,16,143,,20,07,226,*77
$GPGSV,3,3,12,23,20,250,,25,17,230,,28,00,000,,32,11,316,*71
$GLGSV,2,1,08,10,23,057,27,02,40,312,27,08,11,180,20,12,34,268,*61
$GLGSV,2,2,08,01,45,213,,20,23,057,,19,04,004,,21,13,116,*63
$GPGSA,A,1,,,,,,,,,,,,,1.1,0.7,0.8*3F
$GNGSA,A,1,,,,,,,,,,,,,1.1,0.7,0.8*21
$GPVTG,355.8,T,355.8,M,2.0,N,3.7,K,A*25
$GPRMC,084951.00,A,4538.922610,N,00009.400651,E,2.0,355.8,060421,2.1,W,A*26
$GPGGA,084951.00,4538.922610,N,00009.400651,E,1,00,0.7,104.0,M,49.0,M,,*69
$GPGSV,3,1,12,10,22,285,24,12,57,222,32,15,41,171,28,17,24,047,21*7E
$GPGSV,3,2,12,19,35,074,31,24,79,037,27,13,16,143,,20,07,226,*7D
$GPGSV,3,3,12,23,20,250,,25,17,230,,28,00,000,,32,11,316,*71
$GLGSV,2,1,06,08,11,180,25,12,34,268,,01,45,213,,20,23,057,*6F
$GLGSV,2,2,06,19,04,004,,21,13,116,*6C
$GPGSA,A,1,,,,,,,,,,,,,1.1,0.8,0.8*30
$GNGSA,A,1,,,,,,,,,,,,,1.1,0.8,0.8*2E
$GPVTG,357.1,T,357.1,M,2.1,N,3.9,K,A*2A
$GPRMC,084952.00,A,4538.923010,N,00009.400446,E,2.1,357.1,060421,2.1,W,A*2C
$GPGGA,084952.00,4538.923010,N,00009.400446,E,1,00,0.8,103.0,M,49.0,M,,*61
$GPGSV,3,1,12,10,22,285,25,12,57,222,31,13,16,143,23,15,41,171,25*73
$GPGSV,3,2,12,17,24,047,21,19,35,074,29,24,79,037,27,20,07,226,*77
$GPGSV,3,3,12,23,20,250,,25,17,230,,28,00,000,,32,11,316,*71
$GLGSV,2,1,08,10,23,057,22,02,40,312,23,12,34,268,21,01,45,213,22*60
$GLGSV,2,2,08,08,11,180,24,20,23,057,,19,04,004,,21,13,116,*64
$GPGSA,A,1,,,,,,,,,,,,,1.1,0.7,0.8*3F
$GNGSA,A,1,,,,,,,,,,,,,1.1,0.7,0.8*21
$GPVTG,356.0,T,356.0,M,3.8,N,7.1,K,A*2E
$GPRMC,084953.00,A,4538.923648,N,00009.399993,E,3.8,356.0,060421,2.1,W,A*2C
$GPGGA,084953.00,4538.923648,N,00009.399993,E,1,00,0.7,103.0,M,49.0,M,,*66
$GPGSV,3,1,11,10,22,285,25,12,57,222,33,13,16,143,23,15,41,171,27*70
$GPGSV,3,2,11,19,35,074,28,24,79,037,26,20,07,226,,23,20,250,*70
$GPGSV,3,3,11,25,17,230,,28,00,000,,32,11,316,*46
$GLGSV,2,1,07,02,40,312,25,12,34,268,27,01,45,213,22,08,11,180,27*69
$GLGSV,2,2,07,20,23,057,,19,04,004,,21,13,116,*5C
$GPGSA,A,1,,,,,,,,,,,,,1.1,0.7,0.8*3F
$GNGSA,A,1,,,,,,,,,,,,,1.1,0.7,0.8*21
$GPVTG,351.4,T,351.4,M,3.3,N,6.2,K,A*27
$GPRMC,084954.00,A,4538.924563,N,00009.399545,E,3.3,351.4,060421,2.1,W,A*29
$GPGGA,084954.00,4538.924563,N,00009.399545,E,1,00,0.7,103.0,M,49.0,M,,*6B
$GPGSV,3,1,12,10,22,285,27,12,57,222,31,13,16,143,23,15,41,171,28*7C
$GPGSV,3,2,12,19,35,074,29,23,20,250,20,24,79,037,28,17,24,047,*7E
$GPGSV,3,3,12,20,07,226,,25,17,230,,28,00,000,,32,11,316,*76
$GLGSV,2,1,08,10,23,057,20,02,40,312,28,12,34,268,21,01,45,213,25*6E
$GLGSV,2,2,08,08,11,180,28,20,23,057,,19,04,004,,21,13,116,*68
$GPGSA,A,1,,,,,,,,,,,,,1.1,0.7,0.8*3F
$GNGSA,A,1,,,,,,,,,,,,,1.1,0.7,0.8*21
$GPVTG,343.8,T,343.8,M,3.1,N,5.7,K,A*23
$GPRMC,084955.00,A,4538.925373,N,00009.398982,E,3.1,343.8,060421,2.1,W,A*25
$GPGGA,084955.00,4538.925373,N,00009.398982,E,1,00,0.7,104.0,M,49.0,M,,*6D
$GPGSV,3,1,10,10,22,285,24,12,57,222,31,13,16,143,22,15,41,171,30*75
$GPGSV,3,2,10,17,24,047,21,24,79,037,26,20,07,226,,25,17,230,*72
$GPGSV,3,3,10,28,00,000,,32,11,316,*77
$GLGSV,2,1,08,10,23,057,22,02,40,312,29,12,34,268,27,01,45,213,25*6B
$GLGSV,2,2,08,21,13,116,21,08,11,180,23,20,23,057,,19,04,004,*60
$GPGSA,A,1,,,,,,,,,,,,,1.0,0.7,0.8*3E
$GNGSA,A,1,,,,,,,,,,,,,1.0,0.7,0.8*20
$GPVTG,343.0,T,343.0,M,2.5,N,4.7,K,A*27
$GPRMC,084956.00,A,4538.926058,N,00009.398266,E,2.5,343.0,060421,2.1,W,A*23
$GPGGA,084956.00,4538.926058,N,00009.398266,E,1,00,0.7,104.0,M,49.0,M,,*66
$GPGSV,3,1,11,10,22,285,30,12,57,222,29,13,16,143,28,15,41,171,30*72
$GPGSV,3,2,11,19,35,074,22,24,79,037,25,20,07,226,,23,20,250,*79
$GPGSV,3,3,11,25,17,230,,28,00,000,,32,11,316,*46
$GLGSV,2,1,06,02,40,312,30,12,34,268,25,01,45,213,23,08,11,180,24*6C
$GLGSV,2,2,06,20,23,057,,19,04,004,*6A
$GPGSA,A,1,,,,,,,,,,,,,1.0,0.7,0.8*3E
$GNGSA,A,1,,,,,,,,,,,,,1.0,0.7,0.8*20
$GPVTG,342.8,T,342.8,M,3.1,N,5.8,K,A*2C
$GPRMC,084957.00,A,4538.926649,N,00009.397308,E,3.1,342.8,060421,2.1,W,A*2E
$GPGGA,084957.00,4538.926649,N,00009.397308,E,1,00,0.7,104.0,M,49.0,M,,*67
$GPGSV,3,1,12,10,22,285,33,12,57,222,32,13,16,143,29,15,41,171,30*79
$GPGSV,3,2,12,17,24,047,24,19,35,074,25,24,79,037,25,25,17,230,21*7C
$GPGSV,3,3,12,20,07,226,,23,20,250,,28,00,000,,32,11,316,*72
$GLGSV,2,1,08,02,40,312,28,12,34,268,24,01,45,213,24,21,13,116,22*6D
$GLGSV,2,2,08,08,11,180,30,10,23,057,,20,23,057,,19,04,004,*64
$GPGSA,A,1,,,,,,,,,,,,,1.0,0.7,0.8*3E
$GNGSA,A,1,,,,,,,,,,,,,1.0,0.7,0.8*20
$GPVTG,342.7,T,342.7,M,3.1,N,5.7,K,A*23
$GPRMC,084958.00,A,4538.927159,N,00009.396201,E,3.1,342.7,060421,2.1,W,A*20
$GPGGA,084958.00,4538.927159,N,00009.396201,E,1,00,0.7,103.0,M,49.0,M,,*61
$GPGSV,3,1,12,10,22,285,25,12,57,222,31,13,16,143,29,15,41,171,31*7C
$GPGSV,3,2,12,17,24,047,27,19,35,074,22,23,20,250,23,24,79,037,25*7E
$GPGSV,3,3,12,25,17,230,21,20,07,226,,28,00,000,,32,11,316,*75
$GLGSV,2,1,07,02,40,312,28,12,34,268,28,01,45,213,27,08,11,180,23*6A
$GLGSV,2,2,07,10,23,057,,20,23,057,,19,04,004,*59
$GPGSA,A,1,,,,,,,,,,,,,1.0,0.7,0.8*3E
$GNGSA,A,1,,,,,,,,,,,,,1.0,0.7,0.8*20
$GPVTG,322.8,T,322.8,M,2.9,N,5.4,K,A*29
$GPRMC,084959.00,A,4538.927600,N,00009.394918,E,2.9,322.8,060421,2.1,W,A*2B
$GPGGA,084959.00,4538.927600,N,00009.394918,E,1,00,0.7,103.0,M,49.0,M,,*6A
$GPGSV,3,1,11,10,22,285,27,12,57,222,30,13,16,143,23,15,41,171,31*76
$GPGSV,3,2,11,17,24,047,29,19,35,074,26,23,20,250,23,24,79,037,28*7A
$GPGSV,3,3,11,20,07,226,,28,00,000,,32,11,316,*45
$GLGSV,2,1,08,02,40,312,31,12,34,268,27,01,45,213,26,21,13,116,24*62
$GLGSV,2,2,08,08,11,180,33,10,23,057,,20,23,057,,19,04,004,*67
$GPGSA,A,1,,,,,,,,,,,,,1.0,0.7,0.8*3E
$GNGSA,A,1,,,,,,,,,,,,,1.0,0.7,0.8*20
$GPVTG,325.4,T,325.4,M,3.0,N,5.6,K,A*23
$GPRMC,085000.00,A,4538.927832,N,00009.393653,E,3.0,325.4,060421,2.1,W,A*24
$GPGGA,085000.00,4538.927832,N,00009.393653,E,1,00,0.7,103.0,M,49.0,M,,*66
$GPGSV,3,1,11,10,22,285,27,12,57,222,30,13,16,143,23,15,41,171,31*76
$GPGSV,3,2,11,17,24,047,29,19,35,074,26,23,20,250,23,24,79,037,28*7A
$GPGSV,3,3,11,20,07,226,,28,00,000,,32,11,316,*45
$GLGSV,2,1,08,02,40,312,31,12,34,268,27,01,45,213,26,21,13,116,24*62
$GLGSV,2,2,08,08,11,180,33,10,23,057,,20,23,057,,19,04,004,*67
$GPGSA,A,1,,,,,,,,,,,,,1.0,0.7,0.8*3E
$GNGSA,A,1,,,,,,,,,,,,,1.0,0.7,0.8*20
$GPVTG,325.3,T,325.3,M,3.0,N,5.6,K,A*23
$GPRMC,085001.00,A,4538.928184,N,00009.392516,E,3.0,325.3,060421,2.1,W,A*2A
$GPGGA,085001.00,4538.928184,N,00009.392516,E,1,00,0.7,103.0,M,49.0,M,,*6F
$GPGSV,3,1,12,10,22,285,27,12,57,222,31,13,16,143,27,15,41,171,32*73
$GPGSV,3,2,12,17,24,047,24,19,35,074,25,23,20,250,22,24,79,037,27*79
$GPGSV,3,3,12,25,17,230,25,20,07,226,,28,00,000,,32,11,316,*71
$GLGSV,2,1,07,10,23,057,20,02,40,312,27,12,34,268,27,08,11,180,26*6A
$GLGSV,2,2,07,01,45,213,,20,23,057,,19,04,004,*5B
$GPGSA,A,1,,,,,,,,,,,,,1.0,0.7,0.8*3E
$GNGSA,A,1,,,,,,,,,,,,,1.0,0.7,0.8*20
$GPVTG,324.8,T,324.8,M,1.8,N,3.4,K,A*2D
$GPRMC,085002.00,A,4538.928366,N,00009.391618,E,1.8,324.8,060421,2.1,W,A*29
$GPGGA,085002.00,4538.928366,N,00009.391618,E,1,00,0.7,102.0,M,49.0,M,,*6D
$GPGSV,3,1,10,12,57,222,30,13,16,143,31,15,41,171,33,17,24,047,24*78
$GPGSV,3,2,10,23,20,250,27,24,79,037,26,25,17,230,28,20,07,226,*79
$GPGSV,3,3,10,28,00,000,,32,11,316,*77
$GLGSV,2,1,06,02,40,312,27,12,34,268,25,01,45,213,24,20,23,057,*6B
$GLGSV,2,2,06,19,04,004,,21,13,116,*6C
$GPGSA,A,1,,,,,,,,,,,,,1.0,0.7,0.8*3E
$GNGSA,A,1,,,,,,,,,,,,,1.0,0.7,0.8*20
$GPVTG,324.4,T,324.4,M,3.3,N,6.0,K,A*25
$GPRMC,085003.00,A,4538.928747,N,00009.390492,E,3.3,324.4,060421,2.1,W,A*2B
$GPGGA,085003.00,4538.928747,N,00009.390492,E,1,00,0.7,101.0,M,49.0,M,,*69
$GPGSV,3,1,11,10,22,285,23,12,57,222,32,13,16,143,30,15,41,171,28*7A
$GPGSV,3,2,11,17,24,047,27,19,35,074,26,23,20,250,30,25,17,230,25*77
$GPGSV,3,3,11,20,07,226,,28,00,000,,32,11,316,*45
$GLGSV,2,1,07,02,40,312,28,12,34,268,30,10,23,057,,20,23,057,*65
$GLGSV,2,2,07,19,04,004,,21,13,116,,08,11,180,*5C
$GPGSA,A,1,,,,,,,,,,,,,1.0,0.7,0.8*3E
$GNGSA,A,1,,,,,,,,,,,,,1.0,0.7,0.8*20
$GPVTG,310.1,T,310.1,M,3.4,N,6.2,K,A*20
$GPRMC,085004.00,A,4538.929264,N,00009.389414,E,3.4,310.1,060421,2.1,W,A*2A
$GPGGA,085004.00,4538.929264,N,00009.389414,E,1,00,0.7,101.0,M,49.0,M,,*6D
$GPGSV,3,1,11,10,22,285,23,12,57,222,32,13,16,143,30,15,41,171,28*7A
$GPGSV,3,2,11,17,24,047,27,19,35,074,26,23,20,250,30,25,17,230,25*77
$GPGSV,3,3,11,20,07,226,,28,00,000,,32,11,316,*45
$GLGSV,2,1,07,02,40,312,28,12,34,268,30,10,23,057,,20,23,057,*65
$GLGSV,2,2,07,19,04,004,,21,13,116,,08,11,180,*5C
$GPGSA,A,1,,,,,,,,,,,,,1.0,0.7,0.8*3E
$GNGSA,A,1,,,,,,,,,,,,,1.0,0.7,0.8*20
$GPVTG,311.8,T,311.8,M,3.4,N,6.2,K,A*20
$GPRMC,085005.00,A,4538.929810,N,00009.388342,E,3.4,311.8,060421,2.1,W,A*2F
$GPGGA,085005.00,4538.929810,N,00009.388342,E,1,00,0.7,101.0,M,49.0,M,,*60
$GPGSV,3,1,12,10,22,285,32,12,57,222,28,13,16,143,35,15,41,171,32*7C
$GPGSV,3,2,12,17,24,047,25,19,35,074,22,23,20,250,24,24,79,037,27*79
$GPGSV,3,3,12,25,17,230,24,20,07,226,,28,00,000,,32,11,316,*70
$GLGSV,2,1,08,02,40,312,30,12,34,268,27,10,23,057,,01,45,213,*64
$GLGSV,2,2,08,20,23,057,,19,04,004,,21,13,116,,08,11,180,*62
$GPGSA,A,1,,,,,,,,,,,,,1.0,0.7,0.8*3E
$GNGSA,A,1,,,,,,,,,,,,,1.0,0.7,0.8*20
$GPVTG,305.9,T,305.9,M,2.6,N,4.8,K,A*2B
$GPRMC,085006.00,A,4538.930114,N,00009.387495,E,2.6,305.9,060421,2.1,W,A*2C
$GPGGA,085006.00,4538.930114,N,00009.387495,E,1,00,0.7,102.0,M,49.0,M,,*67
$GPGSV,3,1,12,10,22,285,28,12,57,222,29,13,16,143,34,15,41,171,33*76
$GPGSV,3,2,12,17,24,047,24,19,35,074,21,23,20,250,24,24,79,037,26*7A
$GPGSV,3,3,12,25,17,230,29,20,07,226,,28,00,000,,32,11,316,*7D
$GLGSV,2,1,08,02,40,312,26,12,34,268,26,10,23,057,,01,45,213,*62
$GLGSV,2,2,08,20,23,057,,19,04,004,,21,13,116,,08,11,180,*62
$GPGSA,A,1,,,,,,,,,,,,,1.1,0.7,0.8*3F
$GNGSA,A,1,,,,,,,,,,,,,1.1,0.7,0.8*21
$GPVTG,277.3,T,277.3,M,2.5,N,4.7,K,A*27
$GPRMC,085007.00,A,4538.930254,N,00009.386503,E,2.5,277.3,060421,2.1,W,A*28
$GPGGA,085007.00,4538.930254,N,00009.386503,E,1,00,0.7,102.0,M,49.0,M,,*6E
$GPGSV,3,1,11,10,22,285,27,12,57,222,27,13,16,143,35,15,41,171,32*74
$GPGSV,3,2,11,19,35,074,23,23,20,250,23,24,79,037,25,25,17,230,22*7A
$GPGSV,3,3,11,20,07,226,,28,00,000,,32,11,316,*45
$GLGSV,2,1,08,02,40,312,23,12,34,268,24,10,23,057,,01,45,213,*65
$GLGSV,2,2,08,20,23,057,,19,04,004,,21,13,116,,08,11,180,*62
$GPGSA,A,1,,,,,,,,,,,,,1.2,0.8,0.8*33
$GNGSA,A,1,,,,,,,,,,,,,1.2,0.8,0.8*2D
$GPVTG,277.8,T,277.8,M,2.5,N,4.7,K,A*27
$GPRMC,085008.00,A,4538.930472,N,00009.385609,E,2.5,277.8,060421,2.1,W,A*24
$GPGGA,085008.00,4538.930472,N,00009.385609,E,1,00,0.8,102.0,M,49.0,M,,*66
$GPGSV,3,1,12,10,22,285,29,12,57,222,29,13,16,143,33,15,41,171,32*71
$GPGSV,3,2,12,17,24,047,22,19,35,074,25,20,07,226,21,23,20,250,24*70
$GPGSV,3,3,12,24,79,037,24,25,17,230,22,28,00,000,,32,11,316,*7F
$GLGSV,2,1,08,02,40,312,31,12,34,268,27,10,23,057,,01,45,213,*65
$GLGSV,2,2,08,20,23,057,,19,04,004,,21,13,116,,08,11,180,*62
$GPGSA,A,1,,,,,,,,,,,,,1.2,0.8,0.8*33
$GNGSA,A,1,,,,,,,,,,,,,1.2,0.8,0.8*2D
$GPVTG,290.8,T,290.8,M,2.7,N,5.0,K,A*23
$GPRMC,085009.00,A,4538.930579,N,00009.384621,E,2.7,290.8,060421,2.1,W,A*2F
$GPGGA,085009.00,4538.930579,N,00009.384621,E,1,00,0.8,102.0,M,49.0,M,,*66
$GPGSV,3,1,10,10,22,285,28,12,57,222,23,13,16,143,33,15,41,171,31*7B
$GPGSV,3,2,10,19,35,074,22,23,20,250,23,24,79,037,24,25,17,230,21*78
$GPGSV,3,3,10,28,00,000,,32,11,316,*77
$GLGSV,2,1,08,02,40,312,24,12,34,268,22,10,23,057,,01,45,213,*64
$GLGSV,2,2,08,20,23,057,,19,04,004,,21,13,116,,08,11,180,*62
$GPGSA,A,1,,,,,,,,,,,,,1.2,0.8,0.8*33
$GNGSA,A,1,,,,,,,,,,,,,1.2,0.8,0.8*2D
$GPVTG,289.8,T,289.8,M,2.9,N,5.4,K,A*29
$GPRMC,085010.00,A,4538.930674,N,00009.383551,E,2.9,289.8,060421,2.1,W,A*2C
$GPGGA,085010.00,4538.930674,N,00009.383551,E,1,00,0.8,102.0,M,49.0,M,,*63
$GPGSV,3,1,12,10,22,285,32,12,57,222,34,13,16,143,33,15,41,171,34*71
$GPGSV,3,2,12,17,24,047,21,19,35,074,28,20,07,226,22,23,20,250,36*7E
$GPGSV,3,3,12,24,79,037,31,25,17,230,20,32,11,316,22,28,00,000,*79
$GLGSV,2,1,08,02,40,312,32,12,34,268,35,10,23,057,,01,45,213,*65
$GLGSV,2,2,08,20,23,057,,19,04,004,,21,13,116,,08,11,180,*62
$GPGSA,A,1,,,,,,,,,,,,,1.1,0.7,0.8*3F
$GNGSA,A,1,,,,,,,,,,,,,1.1,0.7,0.8*21
$GPVTG,289.9,T,289.9,M,2.5,N,4.6,K,A*26
$GPRMC,085011.00,A,4538.930836,N,00009.382448,E,2.5,289.9,060421,2.1,W,A*20
$GPGGA,085011.00,4538.930836,N,00009.382448,E,1,00,0.7,101.0,M,49.0,M,,*6E
$GPGSV,3,1,10,10,22,285,32,12,57,222,35,13,16,143,41,15,41,171,29*7B
$GPGSV,3,2,10,19,35,074,31,20,07,226,22,23,20,250,41,24,79,037,34*7F
$GPGSV,3,3,10,32,11,316,25,28,00,000,*70
$GLGSV,2,1,08,02,40,312,30,12,34,268,39,01,45,213,23,21,13,116,25*68
$GLGSV,2,2,08,10,23,057,,20,23,057,,19,04,004,,08,11,180,*67
$GPGSA,A,1,,,,,,,,,,,,,1.0,0.7,0.7*31
$GNGSA,A,1,,,,,,,,,,,,,1.0,0.7,0.7*2F
$GPVTG,287.4,T,287.4,M,3.6,N,6.6,K,A*26
$GPRMC,085012.00,A,4538.931083,N,00009.381224,E,3.6,287.4,060421,2.1,W,A*2A
$GPGGA,085012.00,4538.931083,N,00009.381224,E,1,00,0.7,100.0,M,49.0,M,,*64
$GPGSV,3,1,11,10,22,285,39,12,57,222,43,13,16,143,33,15,41,171,29*75
$GPGSV,3,2,11,17,24,047,23,19,35,074,26,20,07,226,23,23,20,250,42*73
$GPGSV,3,3,11,24,79,037,32,32,11,316,23,28,00,000,*4A
$GLGSV,2,1,07,02,40,312,35,12,34,268,40,21,13,116,28,10,23,057,*62
$GLGSV,2,2,07,20,23,057,,19,04,004,,08,11,180,*5A
$GPGSA,A,1,,,,,,,,,,,,,1.0,0.7,0.7*31
$GNGSA,A,1,,,,,,,,,,,,,1.0,0.7,0.7*2F
$GPVTG,287.8,T,287.8,M,3.0,N,5.5,K,A*20
$GPRMC,085013.00,A,4538.931267,N,00009.380108,E,3.0,287.8,060421,2.1,W,A*25
$GPGGA,085013.00,4538.931267,N,00009.380108,E,1,00,0.7,100.0,M,49.0,M,,*61
$GPGSV,3,1,09,10,22,285,35,12,57,222,37,13,16,143,36,15,41,171,33*7D
$GPGSV,3,2,09,19,35,074,27,23,20,250,37,24,79,037,33,25,17,230,26*71
$GPGSV,3,3,09,28,00,000,*4A
$GLGSV,2,1,08,02,40,312,31,12,34,268,34,01,45,213,24,21,13,116,30*67
$GLGSV,2,2,08,10,23,057,,20,23,057,,19,04,004,,08,11,180,*67
$GPGSA,A,1,,,,,,,,,,,,,1.0,0.7,0.7*31
$GNGSA,A,1,,,,,,,,,,,,,1.0,0.7,0.7*2F
$GPVTG,285.8,T,285.8,M,2.8,N,5.1,K,A*2D
$GPRMC,085014.00,A,4538.931436,N,00009.379154,E,2.8,285.8,060421,2.1,W,A*24
$GPGGA,085014.00,4538.931436,N,00009.379154,E,1,00,0.7,100.0,M,49.0,M,,*6B
$GPGSV,3,1,11,10,22,285,38,12,57,222,36,13,16,143,35,15,41,171,32*7A
$GPGSV,3,2,11,19,35,074,27,23,20,250,40,24,79,037,33,17,24,047,*7F
$GPGSV,3,3,11,20,07,226,,28,00,000,,32,11,316,*45
$GLGSV,2,1,08,02,40,312,26,12,34,268,35,01,45,213,25,21,13,116,30*61
$GLGSV,2,2,08,10,23,057,,20,23,057,,19,04,004,,08,11,180,*67
$GPGSA,A,1,,,,,,,,,,,,,1.0,0.7,0.7*31
$GNGSA,A,1,,,,,,,,,,,,,1.0,0.7,0.7*2F
$GPVTG,294.4,T,294.4,M,3.5,N,6.4,K,A*27
$GPRMC,085015.00,A,4538.931884,N,00009.378280,E,3.5,294.4,060421,2.1,W,A*2B
$GPGGA,085015.00,4538.931884,N,00009.378280,E,1,00,0.7,99.0,M,49.0,M,,*55
$GPGSV,3,1,12,10,22,285,40,12,57,222,38,13,16,143,32,15,41,171,30*7D
$GPGSV,3,2,12,19,35,074,28,23,20,250,39,24,79,037,36,17,24,047,*78
$GPGSV,3,3,12,20,07,226,,25,17,230,,28,00,000,,32,11,316,*76
$GLGSV,2,1,07,02,40,312,25,12,34,268,36,21,13,116,33,10,23,057,*68
$GLGSV,2,2,07,20,23,057,,19,04,004,,08,11,180,*5A
$GPGSA,A,1,,,,,,,,,,,,,1.0,0.7,0.7*31
$GNGSA,A,1,,,,,,,,,,,,,1.0,0.7,0.7*2F
$GPVTG,299.7,T,299.7,M,2.7,N,4.9,K,A*2B
$GPRMC,085016.00,A,4538.932445,N,00009.377412,E,2.7,299.7,060421,2.1,W,A*25
$GPGGA,085016.00,4538.932445,N,00009.377412,E,1,00,0.7,98.0,M,49.0,M,,*57
$GPGSV,3,1,12,10,22,285,38,12,57,222,36,13,16,143,29,15,41,171,27*70
$GPGSV,3,2,12,19,35,074,31,23,20,250,42,24,79,037,34,17,24,047,*7E
$GPGSV,3,3,12,20,07,226,,25,17,230,,28,00,000,,32,11,316,*76
$GLGSV,2,1,08,02,40,312,29,12,34,268,32,21,13,116,35,10,23,057,*69
$GLGSV,2,2,08,01,45,213,,20,23,057,,19,04,004,,08,11,180,*65
$GPGSA,A,1,,,,,,,,,,,,,1.0,0.7,0.7*31
$GNGSA,A,1,,,,,,,,,,,,,1.0,0.7,0.7*2F
$GPVTG,299.8,T,299.8,M,2.1,N,3.9,K,A*2A
$GPRMC,085017.00,A,4538.932936,N,00009.376831,E,2.1,299.8,060421,2.1,W,A*28
$GPGGA,085017.00,4538.932936,N,00009.376831,E,1,00,0.7,97.0,M,49.0,M,,*5C
$GPGSV,3,1,10,10,22,285,38,13,16,143,33,15,41,171,30,23,20,250,38*76
$GPGSV,3,2,10,24,79,037,36,17,24,047,,20,07,226,,25,17,230,*70
$GPGSV,3,3,10,28,00,000,,32,11,316,*77
$GLGSV,2,1,08,02,40,312,40,12,34,268,38,21,13,116,36,10,23,057,*6F
$GLGSV,2,2,08,01,45,213,,20,23,057,,19,04,004,,08,11,180,*65
$GPGSA,A,1,,,,,,,,,,,,,1.0,0.7,0.7*31
$GNGSA,A,1,,,,,,,,,,,,,1.0,0.7,0.7*2F
$GPVTG,299.6,T,299.6,M,2.9,N,5.4,K,A*29
$GPRMC,085018.00,A,4538.933321,N,00009.376058,E,2.9,299.6,060421,2.1,W,A*2B
$GPGGA,085018.00,4538.933321,N,00009.376058,E,1,00,0.7,97.0,M,49.0,M,,*59
$GPGSV,3,1,10,10,22,285,27,12,57,222,27,15,41,171,38,19,35,074,24*71
$GPGSV,3,2,10,23,20,250,31,25,17,230,23,32,11,316,24,17,24,047,*7E
$GPGSV,3,3,10,20,07,226,,28,00,000,*71
$GLGSV,2,1,08,02,40,312,31,12,34,268,31,01,45,213,29,21,13,116,33*6C
$GLGSV,2,2,08,10,23,057,,20,23,057,,19,04,004,,08,11,180,*67
$GPGSA,A,1,,,,,,,,,,,,,1.1,0.8,0.8*30
$GNGSA,A,1,,,,,,,,,,,,,1.1,0.8,0.8*2E
$GPVTG,275.2,T,275.2,M,3.0,N,5.5,K,A*20
$GPRMC,085019.00,A,4538.933519,N,00009.374946,E,3.0,275.2,060421,2.1,W,A*2D
$GPGGA,085019.00,4538.933519,N,00009.374946,E,1,00,0.8,98.0,M,49.0,M,,*51
$GPGSV,3,1,10,10,22,285,27,12,57,222,27,15,41,171,38,19,35,074,24*71
$GPGSV,3,2,10,23,20,250,31,25,17,230,23,32,11,316,24,17,24,047,*7E
$GPGSV,3,3,10,20,07,226,,28,00,000,*71
$GLGSV,2,1,08,02,40,312,31,12,34,268,31,01,45,213,29,21,13,116,33*6C
$GLGSV,2,2,08,10,23,057,,20,23,057,,19,04,004,,08,11,180,*67
$GPGSA,A,1,,,,,,,,,,,,,1.1,0.8,0.8*30
$GNGSA,A,1,,,,,,,,,,,,,1.1,0.8,0.8*2E
$GPVTG,299.7,T,299.7,M,3.0,N,5.5,K,A*20
$GPRMC,085020.00,A,4538.933503,N,00009.373799,E,3.0,299.7,060421,2.1,W,A*20
$GPGGA,085020.00,4538.933503,N,00009.373799,E,1,00,0.8,98.0,M,49.0,M,,*5B
$GPGSV,3,1,11,10,22,285,30,12,57,222,33,15,41,171,37,19,35,074,23*7B
$GPGSV,3,2,11,20,07,226,21,23,20,250,28,24,79,037,28,25,17,230,26*74
$GPGSV,3,3,11,13,16,143,,17,24,047,,28,00,000,*43
$GLGSV,2,1,07,12,34,268,23,01,45,213,27,21,13,116,26,10,23,057,*6C
$GLGSV,2,2,07,20,23,057,,19,04,004,,08,11,180,*5A
$GPGSA,A,1,,,,,,,,,,,,,1.1,0.7,0.7*30
$GNGSA,A,1,,,,,,,,,,,,,1.1,0.7,0.7*2E
$GPVTG,256.2,T,256.2,M,3.9,N,7.3,K,A*2D
$GPRMC,085021.00,A,4538.933260,N,00009.372353,E,3.9,256.2,060421,2.1,W,A*2F
$GPGGA,085021.00,4538.933260,N,00009.372353,E,1,00,0.7,97.0,M,49.0,M,,*5B
$GPGSV,3,1,11,10,22,285,28,12,57,222,35,13,16,143,21,15,41,171,35*7A
$GPGSV,3,2,11,19,35,074,20,23,20,250,27,24,79,037,28,25,17,230,30*73
$GPGSV,3,3,11,32,11,316,23,17,24,047,,28,00,000,*44
$GLGSV,2,1,08,02,40,312,25,12,34,268,24,01,45,213,29,21,13,116,23*6C
$GLGSV,2,2,08,10,23,057,,20,23,057,,19,04,004,,08,11,180,*67
$GPGSA,A,1,,,,,,,,,,,,,1.1,0.7,0.7*30
$GNGSA,A,1,,,,,,,,,,,,,1.1,0.7,0.7*2E
$GPVTG,252.6,T,252.6,M,2.8,N,5.2,K,A*2E
$GPRMC,085022.00,A,4538.932888,N,00009.371100,E,2.8,252.6,060421,2.1,W,A*26
$GPGGA,085022.00,4538.932888,N,00009.371100,E,1,00,0.7,96.0,M,49.0,M,,*53
$GPGSV,3,1,10,10,22,285,25,12,57,222,37,15,41,171,35,17,24,047,22*77
$GPGSV,3,2,10,19,35,074,22,20,07,226,21,23,20,250,28,24,79,037,28*7C
$GPGSV,3,3,10,25,17,230,35,28,00,000,*74
$GLGSV,2,1,07,12,34,268,28,01,45,213,31,21,13,116,24,10,23,057,*62
$GLGSV,2,2,07,20,23,057,,19,04,004,,08,11,180,*5A
$GPGSA,A,1,,,,,,,,,,,,,1.0,0.7,0.7*31
$GNGSA,A,1,,,,,,,,,,,,,1.0,0.7,0.7*2F
$GPVTG,254.3,T,254.3,M,2.8,N,5.2,K,A*2E
$GPRMC,085023.00,A,4538.932659,N,00009.369985,E,2.8,254.3,060421,2.1,W,A*2A
$GPGGA,085023.00,4538.932659,N,00009.369985,E,1,00,0.7,97.0,M,49.0,M,,*5D
$GPGSV,3,1,11,10,22,285,25,12,57,222,36,13,16,143,22,15,41,171,31*73
$GPGSV,3,2,11,19,35,074,24,20,07,226,23,23,20,250,33,24,79,037,25*7E
$GPGSV,3,3,11,25,17,230,37,28,00,000,,32,11,316,*42
$GLGSV,2,1,08,12,34,268,29,01,45,213,31,21,13,116,22,10,23,057,*6A
$GLGSV,2,2,08,02,40,312,,20,23,057,,19,04,004,,08,11,180,*63
$GPGSA,A,1,,,,,,,,,,,,,1.0,0.7,0.7*31
$GNGSA,A,1,,,,,,,,,,,,,1.0,0.7,0.7*2F
$GPVTG,264.9,T,264.9,M,4.1,N,7.6,K,A*27
$GPRMC,085024.00,A,4538.932555,N,00009.368588,E,4.1,264.9,060421,2.1,W,A*24
$GPGGA,085024.00,4538.932555,N,00009.368588,E,1,00,0.7,97.0,M,49.0,M,,*55
$GPGSV,3,1,12,10,22,285,23,12,57,222,34,13,16,143,24,15,41,171,25*77
$GPGSV,3,2,12,19,35,074,21,20,07,226,21,23,20,250,32,24,79,037,26*78
$GPGSV,3,3,12,25,17,230,38,17,24,047,,28,00,000,,32,11,316,*7D
$GLGSV,2,1,07,12,34,268,29,01,45,213,31,10,23,057,,02,40,312,*64
$GLGSV,2,2,07,20,23,057,,19,04,004,,08,11,180,*5A
$GPGSA,A,1,,,,,,,,,,,,,1.0,0.7,0.7*31
$GNGSA,A,1,,,,,,,,,,,,,1.0,0.7,0.7*2F
$GPVTG,263.2,T,263.2,M,3.9,N,7.2,K,A*2C
$GPRMC,085025.00,A,4538.932432,N,00009.366985,E,3.9,263.2,060421,2.1,W,A*29
$GPGGA,085025.00,4538.932432,N,00009.366985,E,1,00,0.7,97.0,M,49.0,M,,*5B
$GPGSV,3,1,10,10,22,285,24,12,57,222,35,15,41,171,22,19,35,074,22*7C
$GPGSV,3,2,10,23,20,250,24,24,79,037,22,25,17,230,34,17,24,047,*73
$GPGSV,3,3,10,28,00,000,,32,11,316,*77
$GLGSV,2,1,08,12,34,268,21,01,45,213,30,10,23,057,,02,40,312,*62
$GLGSV,2,2,08,20,23,057,,19,04,004,,21,13,116,,08,11,180,*62
$GPGSA,A,1,,,,,,,,,,,,,1.0,0.7,0.7*31
$GNGSA,A,1,,,,,,,,,,,,,1.0,0.7,0.7*2F
$GPVTG,262.8,T,262.8,M,2.8,N,5.3,K,A*2F
$GPRMC,085026.00,A,4538.932435,N,00009.365720,E,2.8,262.8,060421,2.1,W,A*24
$GPGGA,085026.00,4538.932435,N,00009.365720,E,1,00,0.7,96.0,M,49.0,M,,*5C
$GPGSV,3,1,12,10,22,285,26,12,57,222,35,15,41,171,19,19,35,074,23*75
$GPGSV,3,2,12,20,07,226,30,23,20,250,24,24,79,037,29,25,17,230,36*7B
$GPGSV,3,3,12,13,16,143,,17,24,047,,28,00,000,,32,11,316,*75
$GLGSV,2,1,08,02,40,312,23,12,34,268,29,01,45,213,30,21,13,116,24*68
$GLGSV,2,2,08,10,23,057,,20,23,057,,19,04,004,,08,11,180,*67
$GPGSA,A,1,,,,,,,,,,,,,1.0,0.7,0.7*31
$GNGSA,A,1,,,,,,,,,,,,,1.0,0.7,0.7*2F
$GPVTG,261.2,T,261.2,M,2.4,N,4.4,K,A*25
$GPRMC,085027.00,A,4538.932434,N,00009.364747,E,2.4,261.2,060421,2.1,W,A*21
$GPGGA,085027.00,4538.932434,N,00009.364747,E,1,00,0.7,99.0,M,49.0,M,,*53
$GPGSV,3,1,12,10,22,285,28,12,57,222,34,13,16,143,18,15,41,171,19*7C
$GPGSV,3,2,12,17,24,047,17,19,35,074,24,20,07,226,30,23,20,250,24*77
$GPGSV,3,3,12,24,79,037,28,25,17,230,34,32,11,316,19,28,00,000,*7C
$GLGSV,2,1,08,02,40,312,21,12,34,268,30,01,45,213,29,21,13,116,22*6C
$GLGSV,2,2,08,10,23,057,,20,23,057,,19,04,004,,08,11,180,*67
$GPGSA,A,1,,,,,,,,,,,,,1.0,0.7,0.7*31
$GNGSA,A,1,,,,,,,,,,,,,1.0,0.7,0.7*2F
$GPVTG,276.6,T,276.6,M,3.5,N,6.4,K,A*27
$GPRMC,085028.00,A,4538.932685,N,00009.363981,E,3.5,276.6,060421,2.1,W,A*27
$GPGGA,085028.00,4538.932685,N,00009.363981,E,1,00,0.7,98.0,M,49.0,M,,*56
$GPGSV,3,1,12,10,22,285,28,12,57,222,35,13,16,143,17,15,41,171,19*72
$GPGSV,3,2,12,17,24,047,19,19,35,074,27,20,07,226,25,23,20,250,24*7E
$GPGSV,3,3,12,24,79,037,31,25,17,230,34,32,11,316,20,28,00,000,*7E
$GLGSV,2,1,08,02,40,312,24,12,34,268,24,01,45,213,32,21,13,116,28*6C
$GLGSV,2,2,08,10,23,057,,20,23,057,,19,04,004,,08,11,180,*67
$GPGSA,A,1,,,,,,,,,,,,,1.0,0.7,0.7*31
$GNGSA,A,1,,,,,,,,,,,,,1.0,0.7,0.7*2F
$GPVTG,276.8,T,276.8,M,3.3,N,6.0,K,A*25
$GPRMC,085029.00,A,4538.933084,N,00009.362999,E,3.3,276.8,060421,2.1,W,A*20
$GPGGA,085029.00,4538.933084,N,00009.362999,E,1,00,0.7,98.0,M,49.0,M,,*59
$GPGSV,3,1,11,10,22,285,28,12,57,222,38,13,16,143,17,15,41,171,29*7F
$GPGSV,3,2,11,17,24,047,19,20,07,226,28,23,20,250,24,24,79,037,30*77
$GPGSV,3,3,11,25,17,230,32,32,11,316,20,28,00,000,*45
$GLGSV,2,1,06,12,34,268,32,01,45,213,34,10,23,057,,20,23,057,*6D
$GLGSV,2,2,06,19,04,004,,08,11,180,*6A
$GPGSA,A,1,,,,,,,,,,,,,1.0,0.7,0.7*31
$GNGSA,A,1,,,,,,,,,,,,,1.0,0.7,0.7*2F
$GPVTG,277.8,T,277.8,M,3.1,N,5.7,K,A*23
$GPRMC,085030.00,A,4538.933443,N,00009.361996,E,3.1,277.8,060421,2.1,W,A*28
$GPGGA,085030.00,4538.933443,N,00009.361996,E,1,00,0.7,98.0,M,49.0,M,,*52
$GPGSV,3,1,11,10,22,285,23,12,57,222,38,15,41,171,30,24,79,037,31*77
$GPGSV,3,2,11,25,17,230,32,13,16,143,,17,24,047,,19,35,074,*74
$GPGSV,3,3,11,23,20,250,,28,00,000,,32,11,316,*42
$GLGSV,2,1,08,02,40,312,26,12,34,268,27,01,45,213,32,10,23,057,*62
$GLGSV,2,2,08,20,23,057,,19,04,004,,21,13,116,,08,11,180,*62
$GPGSA,A,1,,,,,,,,,,,,,1.0,0.7,0.7*31
$GNGSA,A,1,,,,,,,,,,,,,1.0,0.7,0.7*2F
$GPVTG,276.0,T,276.0,M,2.1,N,3.8,K,A*2B
$GPRMC,085031.00,A,4538.933583,N,00009.361350,E,2.1,276.0,060421,2.1,W,A*2C
$GPGGA,085031.00,4538.933583,N,00009.361350,E,1,00,0.7,98.0,M,49.0,M,,*5E
$GPGSV,3,1,11,10,22,285,23,12,57,222,38,15,41,171,30,24,79,037,31*77
$GPGSV,3,2,11,25,17,230,32,13,16,143,,17,24,047,,19,35,074,*74
$GPGSV,3,3,11,23,20,250,,28,00,000,,32,11,316,*42
$GLGSV,2,1,08,02,40,312,26,12,34,268,27,01,45,213,32,10,23,057,*62
$GLGSV,2,2,08,20,23,057,,19,04,004,,21,13,116,,08,11,180,*62
$GPGSA,A,1,,,,,,,,,,,,,1.0,0.7,0.7*31
$GNGSA,A,1,,,,,,,,,,,,,1.0,0.7,0.7*2F
$GPVTG,276.0,T,276.0,M,2.1,N,3.8,K,A*2B
$GPRMC,085032.00,A,4538.933642,N,00009.360824,E,2.1,276.0,060421,2.1,W,A*28
$GPGGA,085032.00,4538.933642,N,00009.360824,E,1,00,0.7,98.0,M,49.0,M,,*5A
$GPGSV,3,1,12,10,22,285,21,12,57,222,37,15,41,171,34,19,35,074,25*79
$GPGSV,3,2,12,20,07,226,23,24,79,037,30,25,17,230,38,32,11,316,25*7F
$GPGSV,3,3,12,13,16,143,,17,24,047,,23,20,250,,28,00,000,*74
$GLGSV,2,1,08,02,40,312,22,12,34,268,27,01,45,213,30,21,13,116,21*62
$GLGSV,2,2,08,10,23,057,,20,23,057,,19,04,004,,08,11,180,*67
$GPGSA,A,1,,,,,,,,,,,,,1.0,0.7,0.7*31
$GNGSA,A,1,,,,,,,,,,,,,1.0,0.7,0.7*2F
$GPVTG,271.3,T,271.3,M,2.7,N,4.9,K,A*2B
$GPRMC,085033.00,A,4538.933914,N,00009.360066,E,2.7,271.3,060421,2.1,W,A*29
$GPGGA,085033.00,4538.933914,N,00009.360066,E,1,00,0.7,98.0,M,49.0,M,,*59
$GPGSV,3,1,11,12,57,222,36,15,41,171,34,19,35,074,21,20,07,226,22*71
$GPGSV,3,2,11,24,79,037,29,25,17,230,36,32,11,316,21,13,16,143,*7F
$GPGSV,3,3,11,17,24,047,,23,20,250,,28,00,000,*44
$GLGSV,2,1,07,02,40,312,22,12,34,268,21,01,45,213,33,10,23,057,*6E
$GLGSV,2,2,07,20,23,057,,19,04,004,,08,11,180,*5A
$GPGSA,A,1,,,,,,,,,,,,,1.1,0.8,0.8*30
$GNGSA,A,1,,,,,,,,,,,,,1.1,0.8,0.8*2E
$GPVTG,272.7,T,272.7,M,2.7,N,5.0,K,A*23
$GPRMC,085034.00,A,4538.934103,N,00009.359158,E,2.7,272.7,060421,2.1,W,A*26
$GPGGA,085034.00,4538.934103,N,00009.359158,E,1,00,0.8,99.0,M,49.0,M,,*5F
$GPGSV,3,1,11,10,22,285,23,12,57,222,32,15,41,171,28,19,35,074,25*70
$GPGSV,3,2,11,20,07,226,24,23,20,250,24,24,79,037,25,25,17,230,29*7F
$GPGSV,3,3,11,13,16,143,,17,24,047,,28,00,000,*43
$GLGSV,2,1,08,02,40,312,24,12,34,268,26,01,45,213,34,10,23,057,*67
$GLGSV,2,2,08,20,23,057,,19,04,004,,21,13,116,,08,11,180,*62
$GPGSA,A,1,,,,,,,,,,,,,1.1,0.8,0.8*30
$GNGSA,A,1,,,,,,,,,,,,,1.1,0.8,0.8*2E
$GPVTG,271.3,T,271.3,M,2.4,N,4.4,K,A*25
$GPRMC,085035.00,A,4538.934129,N,00009.358214,E,2.4,271.3,060421,2.1,W,A*21
$GPGGA,085035.00,4538.934129,N,00009.358214,E,1,00,0.8,99.0,M,49.0,M,,*5C
$GPGSV,3,1,11,12,57,222,33,15,41,171,32,17,24,047,22,19,35,074,24*77
$GPGSV,3,2,11,20,07,226,21,23,20,250,25,24,79,037,27,25,17,230,30*71
$GPGSV,3,3,11,13,16,143,,28,00,000,,32,11,316,*45
$GLGSV,2,1,07,12,34,268,22,01,45,213,28,10,23,057,,20,23,057,*60
$GLGSV,2,2,07,19,04,004,,21,13,116,,08,11,180,*5C
$GPGSA,A,1,,,,,,,,,,,,,1.0,0.7,0.8*3E
$GNGSA,A,1,,,,,,,,,,,,,1.0,0.7,0.8*20
$GPVTG,277.5,T,277.5,M,1.1,N,2.0,K,A*21
$GPRMC,085036.00,A,4538.934451,N,00009.357333,E,1.1,277.5,060421,2.1,W,A*25
$GPGGA,085036.00,4538.934451,N,00009.357333,E,1,00,0.7,100.0,M,49.0,M,,*60
$GPGSV,3,1,10,12,57,222,33,15,41,171,31,17,24,047,20,19,35,074,21*72
$GPGSV,3,2,10,24,79,037,29,25,17,230,21,32,11,316,23,10,22,285,*77
$GPGSV,3,3,10,13,16,143,,28,00,000,*71
$GLGSV,2,1,07,01,45,213,31,10,23,057,,02,40,312,,20,23,057,*66
$GLGSV,2,2,07,19,04,004,,21,13,116,,08,11,180,*5C
$GPGSA,A,1,,,,,,,,,,,,,1.0,0.7,0.8*3E
$GNGSA,A,1,,,,,,,,,,,,,1.0,0.7,0.8*20
$GPVTG,262.0,T,262.0,M,1.7,N,3.2,K,A*24
$GPRMC,085037.00,A,4538.934529,N,00009.356421,E,1.7,262.0,060421,2.1,W,A*28
$GPGGA,085037.00,4538.934529,N,00009.356421,E,1,00,0.7,101.0,M,49.0,M,,*6B
$GPGSV,3,1,10,12,57,222,33,15,41,171,31,17,24,047,20,19,35,074,21*72
$GPGSV,3,2,10,24,79,037,29,25,17,230,21,32,11,316,23,10,22,285,*77
$GPGSV,3,3,10,13,16,143,,28,00,000,*71
$GLGSV,2,1,07,01,45,213,31,10,23,057,,02,40,312,,20,23,057,*66
$GLGSV,2,2,07,19,04,004,,21,13,116,,08,11,180,*5C
$GPGSA,A,1,,,,,,,,,,,,,1.0,0.7,0.8*3E
$GNGSA,A,1,,,,,,,,,,,,,1.0,0.7,0.8*20
$GPVTG,260.4,T,260.4,M,1.7,N,3.2,K,A*24
$GPRMC,085038.00,A,4538.934541,N,00009.355464,E,1.7,260.4,060421,2.1,W,A*2D
$GPGGA,085038.00,4538.934541,N,00009.355464,E,1,00,0.7,102.0,M,49.0,M,,*6B
$GPGSV,3,1,12,10,22,285,23,12,57,222,39,15,41,171,29,17,24,047,17*76
$GPGSV,3,2,12,19,35,074,24,23,20,250,19,24,79,037,29,25,17,230,21*78
$GPGSV,3,3,12,32,11,316,21,13,16,143,,20,07,226,,28,00,000,*76
$GLGSV,2,1,08,12,34,268,20,01,45,213,33,10,23,057,,02,40,312,*60
$GLGSV,2,2,08,20,23,057,,19,04,004,,21,13,116,,08,11,180,*62
$GPGSA,A,1,,,,,,,,,,,,,1.1,0.8,0.8*30
$GNGSA,A,1,,,,,,,,,,,,,1.1,0.8,0.8*2E
$GPVTG,276.8,T,276.8,M,3.1,N,5.8,K,A*2C
$GPRMC,085039.00,A,4538.934637,N,00009.354181,E,3.1,276.8,060421,2.1,W,A*2E
$GPGGA,085039.00,4538.934637,N,00009.354181,E,1,00,0.8,102.0,M,49.0,M,,*68
$GPGSV,3,1,12,10,22,285,32,12,57,222,36,15,41,171,33,17,24,047,17*72
$GPGSV,3,2,12,19,35,074,19,23,20,250,20,24,79,037,28,25,17,230,20*7C
$GPGSV,3,3,12,32,11,316,23,13,16,143,,20,07,226,,28,00,000,*74
$GLGSV,2,1,08,02,40,312,18,12,34,268,26,01,45,213,33,21,13,116,17*6C
$GLGSV,2,2,08,10,23,057,,20,23,057,,19,04,004,,08,11,180,*67
$GPGSA,A,1,,,,,,,,,,,,,1.1,0.8,0.8*30
$GNGSA,A,1,,,,,,,,,,,,,1.1,0.8,0.8*2E
$GPVTG,294.4,T,294.4,M,3.1,N,5.7,K,A*23
$GPRMC,085040.00,A,4538.935042,N,00009.352768,E,3.1,294.4,060421,2.1,W,A*22
$GPGGA,085040.00,4538.935042,N,00009.352768,E,1,00,0.8,102.0,M,49.0,M,,*64
$GPGSV,3,1,12,10,22,285,36,12,57,222,36,15,41,171,34,17,24,047,17*71
$GPGSV,3,2,12,19,35,074,21,23,20,250,23,24,79,037,28,25,17,230,21*75
$GPGSV,3,3,12,32,11,316,26,13,16,143,,20,07,226,,28,00,000,*71
$GLGSV,2,1,08,02,40,312,24,12,34,268,23,01,45,213,25,21,13,116,17*61
$GLGSV,2,2,08,10,23,057,,20,23,057,,19,04,004,,08,11,180,*67
$GPGSA,A,1,,,,,,,,,,,,,1.1,0.8,0.8*30
