$GPGSA,A,1,,,,,,,,,,,,,,,*1E
$GNGSA,A,1,,,,,,,,,,,,,,,*00
$GPVTG,,T,,M,,N,,K,N*2C
$GPRMC,,V,,,,,,,,,,N*53
$GPGGA,,,,,,0,,,,,,,,*66
$GPGSV,3,1,12,10,19,275,31,12,68,232,36,15,30,170,36,17,18,040,33*77
$GPGSV,3,2,12,19,34,061,33,20,00,000,24,23,13,241,26,24,72,078,34*7C
$GPGSV,3,3,12,25,26,236,32,32,19,313,33,06,00,000,,13,06,146,*76
$GLGSV,2,1,08,10,14,066,25,02,45,298,37,12,42,281,32,01,33,208,33*6D
$GLGSV,2,2,08,20,24,045,21,21,23,108,23,03,07,337,39,08,01,180,*68
$GPGSA,A,2,12,24,,,,,,,,,,,1.0,0.6,0.8*39
$GNGSA,A,1,,,,,,,,,,,,,1.0,0.6,0.8*21
$GPVTG,,T,,M,0.0,N,0.0,K,A*23
$GPRMC,091154.57,A,4539.101365,N,00008.829997,E,0.0,,060421,2.1,W,A*06
$GPGGA,091154.57,4539.101365,N,00008.829997,E,1,02,0.6,102.0,M,49.0,M,,*6B
$GPGSV,3,1,12,10,19,275,31,12,68,232,37,13,06,146,20,15,30,170,29*76
$GPGSV,3,2,12,17,18,040,34,19,34,061,34,20,00,000,18,23,13,241,31*75
$GPGSV,3,3,12,24,72,078,35,25,26,236,35,32,19,313,30,06,00,000,*7F
$GLGSV,2,1,08,10,14,066,27,02,45,298,35,12,42,281,36,01,33,208,32*68
$GLGSV,2,2,08,20,24,045,24,21,23,108,27,03,07,337,35,08,01,180,*65
$GPGSA,A,2,12,24,,,,,,,,,,,0.9,0.6,0.7*3E
$GNGSA,A,1,,,,,,,,,,,,,0.9,0.6,0.7*26
$GPVTG,19.4,T,19.4,M,2.1,N,3.8,K,A*2B
$GPRMC,091156.00,A,4539.101875,N,00008.829348,E,2.1,19.4,060421,2.1,W,A*15
$GPGGA,091156.00,4539.101875,N,00008.829348,E,1,02,0.6,104.0,M,49.0,M,,*6F
$GPGSV,3,1,12,10,19,275,32,12,68,232,40,13,06,146,21,15,30,170,28*75
$GPGSV,3,2,12,17,18,040,36,19,34,061,35,20,00,000,18,23,13,241,32*75
$GPGSV,3,3,12,24,72,078,36,25,26,236,34,32,19,313,28,06,00,000,*74
$GLGSV,2,1,08,10,14,066,35,02,45,298,34,12,42,281,39,01,33,208,32*65
$GLGSV,2,2,08,20,24,045,24,21,23,108,25,03,07,337,36,08,01,180,*64
$GPGSA,A,2,12,24,,,,,,,,,,,0.9,0.6,0.7*3E
$GNGSA,A,1,,,,,,,,,,,,,0.9,0.6,0.7*26
$GPVTG,4.8,T,4.8,M,2.2,N,4.1,K,A*26
$GPRMC,091157.00,A,4539.102563,N,00008.829707,E,2.2,4.8,060421,2.1,W,A*21
$GPGGA,091157.00,4539.102563,N,00008.829707,E,1,02,0.6,103.0,M,49.0,M,,*6F
$GPGSV,3,1,12,10,19,275,31,12,68,232,38,13,06,146,21,15,30,170,32*72
$GPGSV,3,2,12,17,18,040,27,19,34,061,37,20,00,000,18,23,13,241,33*76
$GPGSV,3,3,12,24,72,078,33,25,26,236,34,32,19,313,30,06,00,000,*78
$GLGSV,2,1,08,10,14,066,36,02,45,298,29,12,42,281,41,01,33,208,28*6E
$GLGSV,2,2,08,20,24,045,24,21,23,108,24,03,07,337,30,08,01,180,*63
$GPGSA,A,2,12,24,,,,,,,,,,,0.9,0.6,0.7*3E
$GNGSA,A,1,,,,,,,,,,,,,0.9,0.6,0.7*26
$GPVTG,8.8,T,8.8,M,1.4,N,2.6,K,A*22
$GPRMC,091158.00,A,4539.103259,N,00008.829824,E,1.4,8.8,060421,2.1,W,A*26
$GPGGA,091158.00,4539.103259,N,00008.829824,E,1,02,0.6,104.0,M,49.0,M,,*66
$GPGSV,3,1,11,12,68,232,38,15,30,170,28,17,18,040,36,19,34,061,24*75
$GPGSV,3,2,11,20,00,000,23,23,13,241,34,24,72,078,31,25,26,236,30*71
$GPGSV,3,3,11,32,19,313,30,06,00,000,,13,06,146,*43
$GLGSV,2,1,08,10,14,066,25,02,45,298,31,12,42,281,33,01,33,208,32*6B
$GLGSV,2,2,08,21,23,108,25,03,07,337,29,20,24,045,,08,01,180,*6C
$GPGSA,A,2,12,24,,,,,,,,,,,0.9,0.6,0.7*3E
$GNGSA,A,1,,,,,,,,,,,,,0.9,0.6,0.7*26
$GPVTG,1.7,T,1.7,M,2.6,N,4.8,K,A*2B
$GPRMC,091159.00,A,4539.103841,N,00008.829745,E,2.6,1.7,060421,2.1,W,A*2B
$GPGGA,091159.00,4539.103841,N,00008.829745,E,1,02,0.6,103.0,M,49.0,M,,*6B
$GPGSV,3,1,11,10,19,275,27,12,68,232,35,15,30,170,35,17,18,040,38*78
$GPGSV,3,2,11,19,34,061,37,23,13,241,34,24,72,078,25,25,26,236,25*7F
$GPGSV,3,3,11,32,19,313,25,06,00,000,,13,06,146,*47
$GLGSV,2,1,06,10,14,066,27,02,45,298,28,12,42,281,32,01,33,208,30*6C
$GLGSV,2,2,06,20,24,045,25,08,01,180,*61
$GPGSA,A,2,12,24,,,,,,,,,,,0.9,0.6,0.7*3E
$GNGSA,A,1,,,,,,,,,,,,,0.9,0.6,0.7*26
$GPVTG,355.2,T,355.2,M,2.1,N,4.0,K,A*24
$GPRMC,091200.00,A,4539.104425,N,00008.829584,E,2.1,355.2,060421,2.1,W,A*22
$GPGGA,091200.00,4539.104425,N,00008.829584,E,1,02,0.6,102.0,M,49.0,M,,*63
$GPGSV,3,1,12,10,19,275,24,12,68,232,35,15,30,170,25,17,18,040,36*77
$GPGSV,3,2,12,19,34,061,30,23,13,241,32,24,72,078,28,25,26,236,31*75
$GPGSV,3,3,12,32,19,313,28,06,00,000,,13,06,146,,20,00,000,*7B
$GLGSV,2,1,07,10,14,066,28,02,45,298,35,12,42,281,39,01,33,208,25*61
$GLGSV,2,2,07,03,07,337,25,21,23,108,,08,01,180,*5D
$GPGSA,A,2,12,24,,,,,,,,,,,0.9,0.6,0.7*3E
$GNGSA,A,1,,,,,,,,,,,,,0.9,0.6,0.7*26
$GPVTG,350.8,T,350.8,M,2.2,N,4.0,K,A*27
$GPRMC,091201.00,A,4539.104918,N,00008.829270,E,2.2,350.8,060421,2.1,W,A*20
$GPGGA,091201.00,4539.104918,N,00008.829270,E,1,02,0.6,101.0,M,49.0,M,,*6E
$GPGSV,3,1,12,10,19,275,29,12,68,232,33,15,30,170,26,17,18,040,31*78
$GPGSV,3,2,12,19,34,061,32,23,13,241,25,24,72,078,25,25,26,236,26*7A
$GPGSV,3,3,12,32,19,313,29,06,00,000,,13,06,146,,20,00,000,*7A
$GLGSV,2,1,08,10,14,066,30,02,45,298,39,12,42,281,30,01,33,208,24*63
$GLGSV,2,2,08,03,07,337,26,20,24,045,,21,23,108,,08,01,180,*64
$GPGSA,A,2,12,24,,,,,,,,,,,0.9,0.6,0.7*3E
$GNGSA,A,1,,,,,,,,,,,,,0.9,0.6,0.7*26
$GPVTG,350.5,T,350.5,M,3.0,N,5.6,K,A*23
$GPRMC,091202.00,A,4539.105657,N,00008.828803,E,3.0,350.5,060421,2.1,W,A*27
$GPGGA,091202.00,4539.105657,N,00008.828803,E,1,02,0.6,100.0,M,49.0,M,,*66
$GPGSV,3,1,12,10,19,275,25,12,68,232,34,15,30,170,23,17,18,040,33*74
$GPGSV,3,2,12,19,34,061,29,23,13,241,27,24,72,078,33,25,26,236,30*72
$GPGSV,3,3,12,32,19,313,29,06,00,000,,13,06,146,,20,00,000,*7A
$GLGSV,2,1,08,10,14,066,29,02,45,298,39,12,42,281,36,01,33,208,24*6D
$GLGSV,2,2,08,21,23,108,24,03,07,337,30,20,24,045,,08,01,180,*65
$GPGSA,A,2,12,24,,,,,,,,,,,1.0,0.6,0.8*39
$GNGSA,A,1,,,,,,,,,,,,,1.0,0.6,0.8*21
$GPVTG,354.1,T,354.1,M,2.5,N,4.7,K,A*27
$GPRMC,091203.00,A,4539.106421,N,00008.828503,E,2.5,354.1,060421,2.1,W,A*2F
$GPGGA,091203.00,4539.106421,N,00008.828503,E,1,02,0.6,100.0,M,49.0,M,,*6A
$GPGSV,3,1,12,10,19,275,31,12,68,232,33,15,30,170,29,17,18,040,34*7B
$GPGSV,3,2,12,19,34,061,36,23,13,241,29,24,72,078,34,25,26,236,32*77
$GPGSV,3,3,12,32,19,313,32,06,00,000,,13,06,146,,20,00,000,*70
$GLGSV,2,1,07,10,14,066,24,02,45,298,34,12,42,281,40,01,33,208,22*65
$GLGSV,2,2,07,20,24,045,25,03,07,337,27,08,01,180,*56
$GPGSA,A,2,12,24,,,,,,,,,,,1.0,0.6,0.8*39
$GNGSA,A,1,,,,,,,,,,,,,1.0,0.6,0.8*21
$GPVTG,2.1,T,2.1,M,3.5,N,6.5,K,A*26
$GPRMC,091204.00,A,4539.107344,N,00008.828365,E,3.5,2.1,060421,2.1,W,A*2A
$GPGGA,091204.00,4539.107344,N,00008.828365,E,1,02,0.6,100.0,M,49.0,M,,*6E
$GPGSV,3,1,11,10,19,275,24,12,68,232,27,15,30,170,28,17,18,040,33*7F
$GPGSV,3,2,11,19,34,061,31,23,13,241,31,24,72,078,31,32,19,313,29*79
$GPGSV,3,3,11,06,00,000,,13,06,146,,20,00,000,*4A
$GLGSV,2,1,08,10,14,066,26,02,45,298,33,12,42,281,24,01,33,208,23*6C
$GLGSV,2,2,08,20,24,045,26,03,07,337,30,21,23,108,,08,01,180,*67
$GPGSA,A,2,12,24,,,,,,,,,,,1.0,0.6,0.8*39
$GNGSA,A,1,,,,,,,,,,,,,1.0,0.6,0.8*21
$GPVTG,7.4,T,7.4,M,1.1,N,2.1,K,A*20
$GPRMC,091205.00,A,4539.108022,N,00008.828467,E,1.1,7.4,060421,2.1,W,A*24
$GPGGA,091205.00,4539.108022,N,00008.828467,E,1,02,0.6,100.0,M,49.0,M,,*66
$GPGSV,3,1,12,10,19,275,26,12,68,232,25,15,30,170,26,17,18,040,34*75
$GPGSV,3,2,12,19,34,061,35,23,13,241,27,24,72,078,35,25,26,236,24*7C
$GPGSV,3,3,12,32,19,313,29,06,00,000,,13,06,146,,20,00,000,*7A
$GLGSV,2,1,08,10,14,066,24,02,45,298,36,12,42,281,28,01,33,208,22*66
$GLGSV,2,2,08,20,24,045,28,21,23,108,30,03,07,337,31,08,01,180,*6B
$GPGSA,A,2,12,24,,,,,,,,,,,1.0,0.6,0.8*39
$GNGSA,A,1,,,,,,,,,,,,,1.0,0.6,0.8*21
$GPVTG,12.5,T,12.5,M,1.4,N,2.5,K,A*21
$GPRMC,091206.00,A,4539.108388,N,00008.828631,E,1.4,12.5,060421,2.1,W,A*15
$GPGGA,091206.00,4539.108388,N,00008.828631,E,1,02,0.6,100.0,M,49.0,M,,*67
$GPGSV,3,1,12,10,19,275,27,12,68,232,31,15,30,170,26,17,18,040,26*72
$GPGSV,3,2,12,19,34,061,37,23,13,241,24,24,72,078,35,25,26,236,27*7E
$GPGSV,3,3,12,32,19,313,34,06,00,000,,13,06,146,,20,00,000,*76
$GLGSV,2,1,07,10,14,066,23,02,45,298,34,12,42,281,29,20,24,045,27*66
$GLGSV,2,2,07,21,23,108,29,03,07,337,30,08,01,180,*52
$GPGSA,A,2,12,24,,,,,,,,,,,1.0,0.6,0.8*39
$GNGSA,A,1,,,,,,,,,,,,,1.0,0.6,0.8*21
$GPVTG,23.1,T,23.1,M,2.2,N,4.1,K,A*26
$GPRMC,091207.00,A,4539.108870,N,00008.828978,E,2.2,23.1,060421,2.1,W,A*19
$GPGGA,091207.00,4539.108870,N,00008.828978,E,1,02,0.6,100.0,M,49.0,M,,*68
$GPGSV,3,1,12,10,19,275,27,12,68,232,31,15,30,170,26,17,18,040,26*72
$GPGSV,3,2,12,19,34,061,37,23,13,241,24,24,72,078,35,25,26,236,27*7E
$GPGSV,3,3,12,32,19,313,34,06,00,000,,13,06,146,,20,00,000,*76
$GLGSV,2,1,07,10,14,066,23,02,45,298,34,12,42,281,29,20,24,045,27*66
$GLGSV,2,2,07,21,23,108,29,03,07,337,30,08,01,180,*52
$GPGSA,A,2,12,24,,,,,,,,,,,1.0,0.6,0.8*39
$GNGSA,A,1,,,,,,,,,,,,,1.0,0.6,0.8*21
$GPVTG,24.4,T,24.4,M,2.3,N,4.2,K,A*24
$GPRMC,091208.00,A,4539.109450,N,00008.829442,E,2.3,24.4,060421,2.1,W,A*1F
$GPGGA,091208.00,4539.109450,N,00008.829442,E,1,02,0.6,100.0,M,49.0,M,,*6D
$GPGSV,2,1,06,10,19,275,23,19,34,061,29,32,19,313,22,06,00,000,*79
$GPGSV,2,2,06,13,06,146,,20,00,000,*7A
$GLGSV,2,1,05,02,45,298,25,12,42,281,26,03,07,337,23,01,33,208,*67
$GLGSV,2,2,05,08,01,180,*50
$GPGSA,A,1,,,,,,,,,,,,,1.0,0.6,0.8*3F
$GNGSA,A,1,,,,,,,,,,,,,1.0,0.6,0.8*21
$GPVTG,27.5,T,27.5,M,2.4,N,4.5,K,A*24
$GPRMC,091209.00,A,4539.110091,N,00008.829930,E,2.4,27.5,060421,2.1,W,A*12
$GPGGA,091209.00,4539.110091,N,00008.829930,E,1,00,0.6,100.0,M,49.0,M,,*67
$GPGSV,3,1,12,10,19,275,27,12,68,232,28,15,30,170,23,17,18,040,22*7B
$GPGSV,3,2,12,19,34,061,35,23,13,241,26,24,72,078,28,25,26,236,33*77
$GPGSV,3,3,12,32,19,313,30,06,00,000,,13,06,146,,20,00,000,*72
$GLGSV,2,1,08,02,45,298,33,12,42,281,33,21,23,108,24,03,07,337,29*65
$GLGSV,2,2,08,10,14,066,,01,33,208,,20,24,045,,08,01,180,*67
$GPGSA,A,2,12,24,,,,,,,,,,,1.0,0.6,0.8*39
$GNGSA,A,1,,,,,,,,,,,,,1.0,0.6,0.8*21
$GPVTG,31.0,T,31.0,M,4.1,N,7.6,K,A*27
$GPRMC,091210.00,A,4539.111055,N,00008.830700,E,4.1,31.0,060421,2.1,W,A*17
$GPGGA,091210.00,4539.111055,N,00008.830700,E,1,02,0.6,100.0,M,49.0,M,,*61
$GPGSV,3,1,12,10,19,275,27,12,68,232,28,15,30,170,23,17,18,040,22*7B
$GPGSV,3,2,12,19,34,061,35,23,13,241,26,24,72,078,28,25,26,236,33*77
$GPGSV,3,3,12,32,19,313,30,06,00,000,,13,06,146,,20,00,000,*72
$GLGSV,2,1,08,02,45,298,33,12,42,281,33,21,23,108,24,03,07,337,29*65
$GLGSV,2,2,08,10,14,066,,01,33,208,,20,24,045,,08,01,180,*67
$GPGSA,A,2,12,24,,,,,,,,,,,1.0,0.6,0.8*39
$GNGSA,A,1,,,,,,,,,,,,,1.0,0.6,0.8*21
$GPVTG,33.3,T,33.3,M,4.1,N,7.6,K,A*27
$GPRMC,091211.00,A,4539.112158,N,00008.831684,E,4.1,33.3,060421,2.1,W,A*14
$GPGGA,091211.00,4539.112158,N,00008.831684,E,1,02,0.6,99.0,M,49.0,M,,*52
$GPGSV,3,1,12,10,19,275,32,12,68,232,32,15,30,170,26,17,18,040,30*72
$GPGSV,3,2,12,19,34,061,30,23,13,241,26,24,72,078,29,25,26,236,33*73
$GPGSV,3,3,12,32,19,313,35,06,00,000,,13,06,146,,20,00,000,*77
$GLGSV,2,1,08,02,45,298,35,12,42,281,37,03,07,337,24,10,14,066,*63
$GLGSV,2,2,08,01,33,208,,20,24,045,,21,23,108,,08,01,180,*68
$GPGSA,A,2,12,24,,,,,,,,,,,1.0,0.7,0.8*38
$GNGSA,A,1,,,,,,,,,,,,,1.0,0.7,0.8*20
$GPVTG,31.7,T,31.7,M,3.9,N,7.3,K,A*2D
$GPRMC,091212.00,A,4539.113052,N,00008.832719,E,3.9,31.7,060421,2.1,W,A*12
$GPGGA,091212.00,4539.113052,N,00008.832719,E,1,02,0.7,98.0,M,49.0,M,,*5D
$GPGSV,3,1,12,10,19,275,29,12,68,232,29,15,30,170,24,17,18,040,24*75
$GPGSV,3,2,12,19,34,061,25,23,13,241,27,24,72,078,30,25,26,236,27*7B
$GPGSV,3,3,12,32,19,313,29,06,00,000,,13,06,146,,20,00,000,*7A
$GLGSV,2,1,08,02,45,298,33,12,42,281,33,21,23,108,23,03,07,337,25*6E
$GLGSV,2,2,08,10,14,066,,01,33,208,,20,24,045,,08,01,180,*67
$GPGSA,A,2,12,24,,,,,,,,,,,1.1,0.7,0.8*39
$GNGSA,A,1,,,,,,,,,,,,,1.1,0.7,0.8*21
$GPVTG,21.8,T,21.8,M,2.7,N,5.0,K,A*23
$GPRMC,091213.00,A,4539.113816,N,00008.833440,E,2.7,21.8,060421,2.1,W,A*14
$GPGGA,091213.00,4539.113816,N,00008.833440,E,1,02,0.7,98.0,M,49.0,M,,*5A
$GPGSV,3,1,12,10,19,275,29,12,68,232,29,15,30,170,24,17,18,040,24*75
$GPGSV,3,2,12,19,34,061,25,23,13,241,27,24,72,078,30,25,26,236,27*7B
$GPGSV,3,3,12,32,19,313,29,06,00,000,,13,06,146,,20,00,000,*7A
$GLGSV,2,1,08,02,45,298,33,12,42,281,33,21,23,108,23,03,07,337,25*6E
$GLGSV,2,2,08,10,14,066,,01,33,208,,20,24,045,,08,01,180,*67
$GPGSA,A,2,12,24,,,,,,,,,,,1.1,0.7,0.8*39
$GNGSA,A,1,,,,,,,,,,,,,1.1,0.7,0.8*21
$GPVTG,22.1,T,22.1,M,2.7,N,5.0,K,A*23
$GPRMC,091214.00,A,4539.114467,N,00008.833934,E,2.7,22.1,060421,2.1,W,A*1A
$GPGGA,091214.00,4539.114467,N,00008.833934,E,1,02,0.7,98.0,M,49.0,M,,*5E
$GPGSV,3,1,10,10,19,275,26,12,68,232,32,17,18,040,29,24,72,078,29*7F
$GPGSV,3,2,10,25,26,236,33,32,19,313,37,06,00,000,,13,06,146,*70
$GPGSV,3,3,10,15,30,170,,20,00,000,*7B
$GLGSV,2,1,07,02,45,298,32,12,42,281,35,21,23,108,24,10,14,066,*61
$GLGSV,2,2,07,01,33,208,,20,24,045,,08,01,180,*5C
$GPGSA,A,2,12,24,,,,,,,,,,,1.1,0.7,0.8*39
$GNGSA,A,1,,,,,,,,,,,,,1.1,0.7,0.8*21
$GPVTG,24.8,T,24.8,M,3.2,N,5.9,K,A*2E
$GPRMC,091215.00,A,4539.115097,N,00008.834687,E,3.2,24.8,060421,2.1,W,A*1A
$GPGGA,091215.00,4539.115097,N,00008.834687,E,1,02,0.7,99.0,M,49.0,M,,*54
$GPGSV,3,1,12,10,19,275,26,12,68,232,25,17,18,040,31,23,13,241,24*77
$GPGSV,3,2,12,24,72,078,26,25,26,236,28,32,19,313,32,06,00,000,*72
$GPGSV,3,3,12,13,06,146,,15,30,170,,19,34,061,,20,00,000,*76
$GLGSV,2,1,07,02,45,298,27,12,42,281,34,03,07,337,27,10,14,066,*6F
$GLGSV,2,2,07,01,33,208,,20,24,045,,08,01,180,*5C
$GPGSA,A,2,12,24,,,,,,,,,,,1.1,0.7,0.8*39
$GNGSA,A,1,,,,,,,,,,,,,1.1,0.7,0.8*21
$GPVTG,24.8,T,24.8,M,2.3,N,4.3,K,A*25
$GPRMC,091216.00,A,4539.115669,N,00008.835481,E,2.3,24.8,060421,2.1,W,A*1B
$GPGGA,091216.00,4539.115669,N,00008.835481,E,1,02,0.7,99.0,M,49.0,M,,*55
$GPGSV,3,1,12,10,19,275,26,12,68,232,25,17,18,040,31,23,13,241,24*77
$GPGSV,3,2,12,24,72,078,26,25,26,236,28,32,19,313,32,06,00,000,*72
$GPGSV,3,3,12,13,06,146,,15,30,170,,19,34,061,,20,00,000,*76
$GLGSV,2,1,07,02,45,298,27,12,42,281,34,03,07,337,27,10,14,066,*6F
$GLGSV,2,2,07,01,33,208,,20,24,045,,08,01,180,*5C
$GPGSA,A,2,12,24,,,,,,,,,,,1.1,0.7,0.8*39
$GNGSA,A,1,,,,,,,,,,,,,1.1,0.7,0.8*21
$GPVTG,24.8,T,24.8,M,2.3,N,4.3,K,A*25
$GPRMC,091217.00,A,4539.116106,N,00008.836231,E,2.3,24.8,060421,2.1,W,A*19
$GPGGA,091217.00,4539.116106,N,00008.836231,E,1,02,0.7,99.0,M,49.0,M,,*57
$GPGSV,3,1,10,10,19,275,28,12,68,232,27,17,18,040,31,19,34,061,22*73
$GPGSV,3,2,10,23,13,241,26,24,72,078,29,25,26,236,31,32,19,313,26*74
$GPGSV,3,3,10,06,00,000,,13,06,146,*79
$GLGSV,2,1,08,02,45,298,26,12,42,281,31,03,07,337,25,10,14,066,*66
$GLGSV,2,2,08,01,33,208,,20,24,045,,21,23,108,,08,01,180,*68
$GPGSA,A,2,12,24,,,,,,,,,,,1.1,0.7,0.8*39
$GNGSA,A,1,,,,,,,,,,,,,1.1,0.7,0.8*21
$GPVTG,24.2,T,24.2,M,3.1,N,5.8,K,A*2C
$GPRMC,091218.00,A,4539.117163,N,00008.836593,E,3.1,24.2,060421,2.1,W,A*12
$GPGGA,091218.00,4539.117163,N,00008.836593,E,1,02,0.7,99.0,M,49.0,M,,*55
$GPGSV,3,1,11,10,19,275,35,12,68,232,26,17,18,040,27,20,00,000,24*74
$GPGSV,3,2,11,23,13,241,26,24,72,078,27,25,26,236,33,32,19,313,32*7C
$GPGSV,3,3,11,06,00,000,,13,06,146,,15,30,170,*49
$GLGSV,2,1,08,02,45,298,24,12,42,281,26,01,33,208,22,03,07,337,25*6D
$GLGSV,2,2,08,10,14,066,,20,24,045,,21,23,108,,08,01,180,*67
$GPGSA,A,2,12,24,,,,,,,,,,,1.0,0.7,0.8*38
$GNGSA,A,1,,,,,,,,,,,,,1.0,0.7,0.8*20
$GPVTG,15.6,T,15.6,M,3.6,N,6.6,K,A*26
$GPRMC,091219.00,A,4539.118452,N,00008.836917,E,3.6,15.6,060421,2.1,W,A*1A
$GPGGA,091219.00,4539.118452,N,00008.836917,E,1,02,0.7,99.0,M,49.0,M,,*5C
$GPGSV,3,1,11,10,19,275,36,12,68,232,27,17,18,040,29,19,34,061,25*73
$GPGSV,3,2,11,23,13,241,21,24,72,078,27,25,26,236,30,32,19,313,28*73
$GPGSV,3,3,11,06,00,000,,13,06,146,,15,30,170,*49
$GLGSV,2,1,08,02,45,298,24,12,42,281,21,01,33,208,22,03,07,337,26*69
$GLGSV,2,2,08,10,14,066,,20,24,045,,21,23,108,,08,01,180,*67
$GPGSA,A,2,12,24,,,,,,,,,,,1.0,0.7,0.8*38
$GNGSA,A,1,,,,,,,,,,,,,1.0,0.7,0.8*20
$GPVTG,9.3,T,9.3,M,3.4,N,6.3,K,A*21
$GPRMC,091220.00,A,4539.119687,N,00008.837090,E,3.4,9.3,060421,2.1,W,A*26
$GPGGA,091220.00,4539.119687,N,00008.837090,E,1,02,0.7,98.0,M,49.0,M,,*5B
$GPGSV,3,1,12,10,19,275,36,12,68,232,27,17,18,040,26,19,34,061,29*73
$GPGSV,3,2,12,23,13,241,22,24,72,078,28,25,26,236,31,32,19,313,26*73
$GPGSV,3,3,12,06,00,000,,13,06,146,,15,30,170,,20,00,000,*78
$GLGSV,2,1,07,02,45,298,22,12,42,281,27,03,07,337,27,10,14,066,*68
$GLGSV,2,2,07,20,24,045,,21,23,108,,08,01,180,*5C
$GPGSA,A,2,12,24,,,,,,,,,,,1.1,0.8,0.8*36
$GNGSA,A,1,,,,,,,,,,,,,1.1,0.8,0.8*2E
$GPVTG,24.2,T,24.2,M,3.0,N,5.6,K,A*23
$GPRMC,091221.00,A,4539.120716,N,00008.837486,E,3.0,24.2,060421,2.1,W,A*1D
$GPGGA,091221.00,4539.120716,N,00008.837486,E,1,02,0.8,99.0,M,49.0,M,,*54
$GPGSV,3,1,12,10,19,275,32,12,68,232,24,17,18,040,28,19,34,061,27*74
$GPGSV,3,2,12,20,00,000,22,23,13,241,25,24,72,078,26,25,26,236,31*74
$GPGSV,3,3,12,32,19,313,31,06,00,000,,13,06,146,,15,30,170,*70
$GLGSV,2,1,08,02,45,298,25,12,42,281,29,01,33,208,22,03,07,337,24*62
$GLGSV,2,2,08,10,14,066,,20,24,045,,21,23,108,,08,01,180,*67
$GPGSA,A,2,12,24,,,,,,,,,,,1.1,0.8,0.8*36
$GNGSA,A,1,,,,,,,,,,,,,1.1,0.8,0.8*2E
$GPVTG,36.9,T,36.9,M,1.7,N,3.2,K,A*24
$GPRMC,091222.00,A,4539.121396,N,00008.838041,E,1.7,36.9,060421,2.1,W,A*1E
$GPGGA,091222.00,4539.121396,N,00008.838041,E,1,02,0.8,99.0,M,49.0,M,,*5A
$GPGSV,3,1,11,10,19,275,28,12,68,232,27,15,30,170,23,17,18,040,24*7E
$GPGSV,3,2,11,19,34,061,31,23,13,241,23,24,72,078,28,25,26,236,30*76
$GPGSV,3,3,11,32,19,313,34,06,00,000,,13,06,146,*47
$GLGSV,2,1,07,10,14,066,20,02,45,298,23,12,42,281,25,03,07,337,29*67
$GLGSV,2,2,07,20,24,045,,21,23,108,,08,01,180,*5C
$GPGSA,A,2,12,24,,,,,,,,,,,1.0,0.7,0.8*38
$GNGSA,A,1,,,,,,,,,,,,,1.0,0.7,0.8*20
$GPVTG,52.1,T,52.1,M,1.6,N,3.0,K,A*27
$GPRMC,091223.00,A,4539.121769,N,00008.838520,E,1.6,52.1,060421,2.1,W,A*12
$GPGGA,091223.00,4539.121769,N,00008.838520,E,1,02,0.7,100.0,M,49.0,M,,*63
$GPGSV,3,1,12,10,19,275,35,12,68,232,29,15,30,170,22,17,18,040,25*7F
$GPGSV,3,2,12,19,34,061,34,23,13,241,23,24,72,078,27,25,26,236,31*7E
$GPGSV,3,3,12,32,19,313,37,06,00,000,,13,06,146,,20,00,000,*75
$GLGSV,2,1,08,10,14,066,25,02,45,298,25,12,42,281,29,03,07,337,28*66
$GLGSV,2,2,08,01,33,208,,20,24,045,,21,23,108,,08,01,180,*68
$GPGSA,A,2,12,24,,,,,,,,,,,1.0,0.7,0.8*38
$GNGSA,A,1,,,,,,,,,,,,,1.0,0.7,0.8*20
$GPVTG,50.5,T,50.5,M,2.0,N,3.7,K,A*25
$GPRMC,091224.00,A,4539.122144,N,00008.839082,E,2.0,50.5,060421,2.1,W,A*10
$GPGGA,091224.00,4539.122144,N,00008.839082,E,1,02,0.7,99.0,M,49.0,M,,*53
$GPGSV,3,1,11,10,19,275,36,12,68,232,27,15,30,170,26,17,18,040,25*75
$GPGSV,3,2,11,19,34,061,31,24,72,078,27,25,26,236,31,32,19,313,39*7F
$GPGSV,3,3,11,06,00,000,,13,06,146,,20,00,000,*4A
$GLGSV,2,1,08,10,14,066,25,02,45,298,26,12,42,281,29,03,07,337,26*6B
$GLGSV,2,2,08,01,33,208,,20,24,045,,21,23,108,,08,01,180,*68
$GPGSA,A,2,12,24,,,,,,,,,,,1.0,0.7,0.8*38
$GNGSA,A,1,,,,,,,,,,,,,1.0,0.7,0.8*20
$GPVTG,40.2,T,40.2,M,1.7,N,3.1,K,A*27
$GPRMC,091225.00,A,4539.122555,N,00008.839616,E,1.7,40.2,060421,2.1,W,A*1C
$GPGGA,091225.00,4539.122555,N,00008.839616,E,1,02,0.7,100.0,M,49.0,M,,*6C
$GPGSV,3,1,10,10,19,275,34,12,68,232,27,19,34,061,34,24,72,078,29*77
$GPGSV,3,2,10,25,26,236,29,32,19,313,38,06,00,000,,13,06,146,*74
$GPGSV,3,3,10,20,00,000,,23,13,241,*7E
$GLGSV,2,1,08,10,14,066,25,02,45,298,32,12,42,281,30,03,07,337,22*62
$GLGSV,2,2,08,01,33,208,,20,24,045,,21,23,108,,08,01,180,*68
$GPGSA,A,2,12,24,,,,,,,,,,,1.0,0.7,0.8*38
$GNGSA,A,1,,,,,,,,,,,,,1.0,0.7,0.8*20
$GPVTG,30.9,T,30.9,M,2.9,N,5.4,K,A*29
$GPRMC,091226.00,A,4539.123200,N,00008.840125,E,2.9,30.9,060421,2.1,W,A*11
$GPGGA,091226.00,4539.123200,N,00008.840125,E,1,02,0.7,101.0,M,49.0,M,,*61
$GPGSV,3,1,11,10,19,275,32,12,68,232,26,17,18,040,28,19,34,061,31*72
$GPGSV,3,2,11,24,72,078,30,25,26,236,28,32,19,313,38,06,00,000,*7C
$GPGSV,3,3,11,13,06,146,,15,30,170,,20,00,000,*4D
$GLGSV,2,1,08,10,14,066,25,02,45,298,35,12,42,281,24,01,33,208,24*6E
$GLGSV,2,2,08,03,07,337,23,20,24,045,,21,23,108,,08,01,180,*61
$GPGSA,A,2,12,24,,,,,,,,,,,1.0,0.7,0.8*38
$GNGSA,A,1,,,,,,,,,,,,,1.0,0.7,0.8*20
$GPVTG,23.6,T,23.6,M,3.2,N,5.9,K,A*2E
$GPRMC,091227.00,A,4539.124094,N,00008.840681,E,3.2,23.6,060421,2.1,W,A*16
$GPGGA,091227.00,4539.124094,N,00008.840681,E,1,02,0.7,101.0,M,49.0,M,,*61
$GPGSV,3,1,12,10,19,275,30,12,68,232,28,17,18,040,26,19,34,061,29*7A
$GPGSV,3,2,12,20,00,000,23,23,13,241,23,24,72,078,26,25,26,236,25*76
$GPGSV,3,3,12,32,19,313,30,06,00,000,,13,06,146,,15,30,170,*71
$GLGSV,2,1,07,02,45,298,27,12,42,281,26,01,33,208,28,03,07,337,25*6B
$GLGSV,2,2,07,20,24,045,,21,23,108,,08,01,180,*5C
$GPGSA,A,2,12,24,,,,,,,,,,,1.0,0.7,0.8*38
$GNGSA,A,1,,,,,,,,,,,,,1.0,0.7,0.8*20
$GPVTG,15.0,T,15.0,M,2.7,N,5.1,K,A*22
$GPRMC,091228.00,A,4539.125136,N,00008.841131,E,2.7,15.0,060421,2.1,W,A*1B
$GPGGA,091228.00,4539.125136,N,00008.841131,E,1,02,0.7,104.0,M,49.0,M,,*6E
$GPGSV,3,1,10,10,19,275,28,12,68,232,26,15,30,170,23,17,18,040,25*7F
$GPGSV,3,2,10,19,34,061,32,24,72,078,28,25,26,236,26,32,19,313,37*7A
$GPGSV,3,3,10,06,00,000,,13,06,146,*79
$GLGSV,2,1,07,02,45,298,28,12,42,281,31,03,07,337,30,10,14,066,*63
$GLGSV,2,2,07,20,24,045,,21,23,108,,08,01,180,*5C
$GPGSA,A,2,12,24,,,,,,,,,,,1.0,0.7,0.8*38
$GNGSA,A,1,,,,,,,,,,,,,1.0,0.7,0.8*20
$GPVTG,14.7,T,14.7,M,3.3,N,6.2,K,A*27
$GPRMC,091229.00,A,4539.126149,N,00008.841542,E,3.3,14.7,060421,2.1,W,A*12
$GPGGA,091229.00,4539.126149,N,00008.841542,E,1,02,0.7,109.0,M,49.0,M,,*69
$GPGSV,3,1,11,10,19,275,32,12,68,232,27,15,30,170,24,17,18,040,30*77
$GPGSV,3,2,11,19,34,061,30,24,72,078,28,32,19,313,36,06,00,000,*7E
$GPGSV,3,3,11,13,06,146,,20,00,000,,23,13,241,*48
$GLGSV,2,1,08,02,45,298,28,12,42,281,25,01,33,208,23,21,23,108,26*68
$GLGSV,2,2,08,03,07,337,29,10,14,066,,20,24,045,,08,01,180,*64
$GPGSA,A,2,12,24,,,,,,,,,,,1.0,0.7,0.8*38
$GNGSA,A,1,,,,,,,,,,,,,1.0,0.7,0.8*20
$GPVTG,15.0,T,15.0,M,3.0,N,5.5,K,A*20
$GPRMC,091230.00,A,4539.127150,N,00008.841972,E,3.0,15.0,060421,2.1,W,A*19
$GPGGA,091230.00,4539.127150,N,00008.841972,E,1,02,0.7,108.0,M,49.0,M,,*66
$GPGSV,3,1,10,12,68,232,26,17,18,040,29,19,34,061,31,24,72,078,31*74
$GPGSV,3,2,10,32,19,313,37,06,00,000,,13,06,146,,20,00,000,*76
$GPGSV,3,3,10,23,13,241,,25,26,236,*78
$GLGSV,2,1,07,10,14,066,25,02,45,298,29,12,42,281,29,01,33,208,23*66
$GLGSV,2,2,07,03,07,337,28,20,24,045,,08,01,180,*5E
$GPGSA,A,2,12,24,,,,,,,,,,,1.0,0.7,0.8*38
$GNGSA,A,1,,,,,,,,,,,,,1.0,0.7,0.8*20
$GPVTG,23.0,T,23.0,M,2.9,N,5.3,K,A*2E
$GPRMC,091231.00,A,4539.127944,N,00008.842675,E,2.9,23.0,060421,2.1,W,A*13
$GPGGA,091231.00,4539.127944,N,00008.842675,E,1,02,0.7,107.0,M,49.0,M,,*6E
$GPGSV,3,1,11,17,18,040,29,19,34,061,32,24,72,078,31,32,19,313,37*70
$GPGSV,3,2,11,06,00,000,,10,19,275,,13,06,146,,15,30,170,*71
$GPGSV,3,3,11,20,00,000,,23,13,241,,25,26,236,*4B
$GLGSV,2,1,06,02,45,298,28,12,42,281,28,21,23,108,24,03,07,337,33*60
$GLGSV,2,2,06,20,24,045,,08,01,180,*66
$GPGSA,A,2,24,,,,,,,,,,,,1.0,0.7,0.8*3B
$GNGSA,A,1,,,,,,,,,,,,,1.0,0.7,0.8*20
$GPVTG,37.8,T,37.8,M,2.6,N,4.9,K,A*2A
$GPRMC,091232.00,A,4539.128687,N,00008.843445,E,2.6,37.8,060421,2.1,W,A*1D
$GPGGA,091232.00,4539.128687,N,00008.843445,E,1,01,0.7,108.0,M,49.0,M,,*6E
$GPGSV,3,1,12,12,68,232,26,17,18,040,26,19,34,061,34,24,72,078,29*75
$GPGSV,3,2,12,32,19,313,34,06,00,000,,10,19,275,,13,06,146,*7C
$GPGSV,3,3,12,15,30,170,,20,00,000,,23,13,241,,25,26,236,*79
$GLGSV,2,1,07,02,45,298,27,12,42,281,31,03,07,337,30,10,14,066,*6C
$GLGSV,2,2,07,01,33,208,,20,24,045,,08,01,180,*5C
$GPGSA,A,2,12,24,,,,,,,,,,,1.0,0.7,0.8*38
$GNGSA,A,1,,,,,,,,,,,,,1.0,0.7,0.8*20
$GPVTG,53.8,T,53.8,M,3.4,N,6.4,K,A*26
$GPRMC,091233.00,A,4539.129303,N,00008.844620,E,3.4,53.8,060421,2.1,W,A*13
$GPGGA,091233.00,4539.129303,N,00008.844620,E,1,02,0.7,107.0,M,49.0,M,,*6D
$GPGSV,3,1,12,12,68,232,26,17,18,040,26,19,34,061,34,24,72,078,29*75
$GPGSV,3,2,12,32,19,313,34,06,00,000,,10,19,275,,13,06,146,*7C
$GPGSV,3,3,12,15,30,170,,20,00,000,,23,13,241,,25,26,236,*79
$GLGSV,2,1,07,02,45,298,27,12,42,281,31,03,07,337,30,10,14,066,*6C
$GLGSV,2,2,07,01,33,208,,20,24,045,,08,01,180,*5C
$GPGSA,A,2,12,24,,,,,,,,,,,1.0,0.7,0.8*38
$GNGSA,A,1,,,,,,,,,,,,,1.0,0.7,0.8*20
$GPVTG,57.8,T,57.8,M,3.4,N,6.4,K,A*26
$GPRMC,091234.00,A,4539.129868,N,00008.846002,E,3.4,57.8,060421,2.1,W,A*12
$GPGGA,091234.00,4539.129868,N,00008.846002,E,1,02,0.7,106.0,M,49.0,M,,*69
$GPGSV,3,1,12,10,19,275,28,12,68,232,24,15,30,170,23,17,18,040,25*7F
$GPGSV,3,2,12,19,34,061,26,24,72,078,29,32,19,313,33,06,00,000,*7E
$GPGSV,3,3,12,13,06,146,,20,00,000,,23,13,241,,25,26,236,*7F
$GLGSV,2,1,08,02,45,298,30,12,42,281,32,21,23,108,27,03,07,337,30*6C
$GLGSV,2,2,08,10,14,066,,01,33,208,,20,24,045,,08,01,180,*67
$GPGSA,A,2,12,24,,,,,,,,,,,1.1,0.7,0.8*39
$GNGSA,A,1,,,,,,,,,,,,,1.1,0.7,0.8*21
$GPVTG,61.5,T,61.5,M,3.1,N,5.7,K,A*23
$GPRMC,091235.00,A,4539.130366,N,00008.847475,E,3.1,61.5,060421,2.1,W,A*16
$GPGGA,091235.00,4539.130366,N,00008.847475,E,1,02,0.7,106.0,M,49.0,M,,*60
$GPGSV,3,1,11,10,19,275,27,12,68,232,28,17,18,040,25,19,34,061,25*70
$GPGSV,3,2,11,24,72,078,30,25,26,236,25,32,19,313,35,06,00,000,*7C
$GPGSV,3,3,11,13,06,146,,20,00,000,,23,13,241,*48
$GLGSV,2,1,08,02,45,298,26,12,42,281,25,21,23,108,27,03,07,337,28*64
$GLGSV,2,2,08,10,14,066,,01,33,208,,20,24,045,,08,01,180,*67
$GPGSA,A,2,12,24,,,,,,,,,,,1.0,0.7,0.8*38
$GNGSA,A,1,,,,,,,,,,,,,1.0,0.7,0.8*20
$GPVTG,66.4,T,66.4,M,3.0,N,5.5,K,A*20
$GPRMC,091236.00,A,4539.130643,N,00008.848809,E,3.0,66.4,060421,2.1,W,A*18
$GPGGA,091236.00,4539.130643,N,00008.848809,E,1,02,0.7,105.0,M,49.0,M,,*6A
$GPGSV,3,1,11,10,19,275,27,12,68,232,28,17,18,040,25,19,34,061,25*70
$GPGSV,3,2,11,24,72,078,30,25,26,236,25,32,19,313,35,06,00,000,*7C
$GPGSV,3,3,11,13,06,146,,20,00,000,,23,13,241,*48
$GLGSV,2,1,08,02,45,298,26,12,42,281,25,21,23,108,27,03,07,337,28*64
$GLGSV,2,2,08,10,14,066,,01,33,208,,20,24,045,,08,01,180,*67
$GPGSA,A,2,12,24,,,,,,,,,,,1.1,0.8,0.8*36
$GNGSA,A,1,,,,,,,,,,,,,1.1,0.8,0.8*2E
$GPVTG,71.9,T,71.9,M,3.0,N,5.5,K,A*20
$GPRMC,091237.00,A,4539.130849,N,00008.850132,E,3.0,71.9,060421,2.1,W,A*1E
$GPGGA,091237.00,4539.130849,N,00008.850132,E,1,02,0.8,105.0,M,49.0,M,,*68
$GPGSV,3,1,12,10,19,275,27,12,68,232,22,15,30,170,21,19,34,061,30*73
$GPGSV,3,2,12,23,13,241,21,24,72,078,30,25,26,236,24,32,19,313,31*7B
$GPGSV,3,3,12,06,00,000,,13,06,146,,17,18,040,,20,00,000,*72
$GLGSV,2,1,08,10,14,066,21,02,45,298,26,12,42,281,25,21,23,108,27*6A
$GLGSV,2,2,08,03,07,337,31,01,33,208,,20,24,045,,08,01,180,*62
$GPGSA,A,2,12,24,,,,,,,,,,,1.0,0.7,0.8*38
$GNGSA,A,1,,,,,,,,,,,,,1.0,0.7,0.8*20
$GPVTG,80.7,T,80.7,M,3.1,N,5.8,K,A*2C
$GPRMC,091238.00,A,4539.130947,N,00008.851669,E,3.1,80.7,060421,2.1,W,A*17
$GPGGA,091238.00,4539.130947,N,00008.851669,E,1,02,0.7,106.0,M,49.0,M,,*6C
$GPGSV,3,1,10,12,68,232,21,15,30,170,22,17,18,040,24,19,34,061,31*71
$GPGSV,3,2,10,24,72,078,32,25,26,236,25,32,19,313,35,06,00,000,*7F
$GPGSV,3,3,10,13,06,146,,20,00,000,*7D
$GLGSV,2,1,08,10,14,066,21,02,45,298,28,12,42,281,21,21,23,108,27*60
$GLGSV,2,2,08,03,07,337,31,01,33,208,,20,24,045,,08,01,180,*62
$GPGSA,A,2,12,24,,,,,,,,,,,1.0,0.7,0.8*38
$GNGSA,A,1,,,,,,,,,,,,,1.0,0.7,0.8*20
$GPVTG,84.3,T,84.3,M,4.0,N,7.4,K,A*24
$GPRMC,091239.00,A,4539.130960,N,00008.853319,E,4.0,84.3,060421,2.1,W,A*15
$GPGGA,091239.00,4539.130960,N,00008.853319,E,1,02,0.7,106.0,M,49.0,M,,*68
$GPGSV,3,1,12,12,68,232,23,15,30,170,22,17,18,040,25,19,34,061,24*74
$GPGSV,3,2,12,24,72,078,31,25,26,236,23,32,19,313,37,06,00,000,*7A
$GPGSV,3,3,12,10,19,275,,13,06,146,,20,00,000,,23,13,241,*72
$GLGSV,2,1,07,02,45,298,28,12,42,281,26,21,23,108,27,03,07,337,33*6C
$GLGSV,2,2,07,01,33,208,,20,24,045,,08,01,180,*5C
$GPGSA,A,2,12,24,,,,,,,,,,,1.0,0.7,0.8*38
$GNGSA,A,1,,,,,,,,,,,,,1.0,0.7,0.8*20
$GPVTG,88.1,T,88.1,M,4.2,N,7.8,K,A*2A
$GPRMC,091240.00,A,4539.130868,N,00008.855165,E,4.2,88.1,060421,2.1,W,A*11
$GPGGA,091240.00,4539.130868,N,00008.855165,E,1,02,0.7,105.0,M,49.0,M,,*63
$GPGSV,3,1,12,10,19,275,22,12,68,232,24,15,30,170,21,17,18,040,23*71
$GPGSV,3,2,12,19,34,061,24,24,72,078,28,25,26,236,26,32,19,313,35*7D
$GPGSV,3,3,12,06,00,000,,13,06,146,,20,00,000,,23,13,241,*7D
$GLGSV,2,1,08,10,14,066,21,02,45,298,27,12,42,281,24,21,23,108,27*6A
$GLGSV,2,2,08,03,07,337,27,01,33,208,,20,24,045,,08,01,180,*65
$GPGSA,A,2,12,24,,,,,,,,,,,1.0,0.7,0.8*38
$GNGSA,A,1,,,,,,,,,,,,,1.0,0.7,0.8*20
$GPVTG,90.9,T,90.9,M,4.1,N,7.6,K,A*27
$GPRMC,091241.00,A,4539.130642,N,00008.857000,E,4.1,90.9,060421,2.1,W,A*14
$GPGGA,091241.00,4539.130642,N,00008.857000,E,1,02,0.7,107.0,M,49.0,M,,*66
$GPGSV,3,1,11,10,19,275,24,12,68,232,25,17,18,040,27,19,34,061,25*7C
$GPGSV,3,2,11,24,72,078,32,25,26,236,28,32,19,313,31,06,00,000,*77
$GPGSV,3,3,11,13,06,146,,20,00,000,,23,13,241,*48
$GLGSV,2,1,07,02,45,298,26,12,42,281,27,21,23,108,29,03,07,337,30*6E
$GLGSV,2,2,07,01,33,208,,20,24,045,,08,01,180,*5C
$GPGSA,A,2,12,24,,,,,,,,,,,1.0,0.7,0.8*38
$GNGSA,A,1,,,,,,,,,,,,,1.0,0.7,0.8*20
$GPVTG,95.8,T,95.8,M,3.3,N,6.1,K,A*24
$GPRMC,091242.00,A,4539.130296,N,00008.858659,E,3.3,95.8,060421,2.1,W,A*1E
$GPGGA,091242.00,4539.130296,N,00008.858659,E,1,02,0.7,106.0,M,49.0,M,,*6C
$GPGSV,3,1,11,10,19,275,24,12,68,232,25,17,18,040,27,19,34,061,25*7C
$GPGSV,3,2,11,24,72,078,32,25,26,236,28,32,19,313,31,06,00,000,*77
$GPGSV,3,3,11,13,06,146,,20,00,000,,23,13,241,*48
$GLGSV,2,1,07,02,45,298,26,12,42,281,27,21,23,108,29,03,07,337,30*6E
$GLGSV,2,2,07,01,33,208,,20,24,045,,08,01,180,*5C
$GPGSA,A,2,12,24,,,,,,,,,,,1.0,0.7,0.8*38
$GNGSA,A,1,,,,,,,,,,,,,1.0,0.7,0.8*20
$GPVTG,95.9,T,95.9,M,3.3,N,6.1,K,A*24
$GPRMC,091243.00,A,4539.129961,N,00008.860115,E,3.3,95.9,060421,2.1,W,A*11
$GPGGA,091243.00,4539.129961,N,00008.860115,E,1,02,0.7,104.0,M,49.0,M,,*60
$GPGSV,3,1,11,12,68,232,25,17,18,040,25,19,34,061,25,24,72,078,29*76
$GPGSV,3,2,11,25,26,236,23,32,19,313,36,06,00,000,,13,06,146,*71
$GPGSV,3,3,11,15,30,170,,20,00,000,,23,13,241,*4E
$GLGSV,2,1,08,02,45,298,30,12,42,281,21,21,23,108,25,03,07,337,31*6D
$GLGSV,2,2,08,10,14,066,,01,33,208,,20,24,045,,08,01,180,*67
$GPGSA,A,2,12,24,,,,,,,,,,,1.1,0.7,0.8*39
$GNGSA,A,1,,,,,,,,,,,,,1.1,0.7,0.8*21
$GPVTG,95.5,T,95.5,M,2.2,N,4.0,K,A*27
$GPRMC,091244.00,A,4539.129901,N,00008.861282,E,2.2,95.5,060421,2.1,W,A*10
$GPGGA,091244.00,4539.129901,N,00008.861282,E,1,02,0.7,103.0,M,49.0,M,,*6A
$GPGSV,3,1,11,12,68,232,27,17,18,040,23,19,34,061,24,24,72,078,29*73
$GPGSV,3,2,11,32,19,313,37,06,00,000,,10,19,275,,13,06,146,*7C
$GPGSV,3,3,11,15,30,170,,20,00,000,,23,13,241,*4E
$GLGSV,2,1,08,02,45,298,27,12,42,281,22,21,23,108,30,03,07,337,23*6F
$GLGSV,2,2,08,10,14,066,,01,33,208,,20,24,045,,08,01,180,*67
$GPGSA,A,2,12,24,,,,,,,,,,,1.1,0.7,0.8*39
$GNGSA,A,1,,,,,,,,,,,,,1.1,0.7,0.8*21
$GPVTG,79.2,T,79.2,M,4.1,N,7.6,K,A*27
$GPRMC,091245.00,A,4539.130200,N,00008.862578,E,4.1,79.2,060421,2.1,W,A*12
$GPGGA,091245.00,4539.130200,N,00008.862578,E,1,02,0.7,103.0,M,49.0,M,,*68
$GPGSV,3,1,12,12,68,232,24,17,18,040,30,19,34,061,21,24,72,078,30*7C
$GPGSV,3,2,12,32,19,313,27,06,00,000,,10,19,275,,13,06,146,*7E
$GPGSV,3,3,12,15,30,170,,20,00,000,,23,13,241,,25,26,236,*79
$GLGSV,2,1,08,02,45,298,23,12,42,281,28,21,23,108,31,03,07,337,29*6A
$GLGSV,2,2,08,10,14,066,,01,33,208,,20,24,045,,08,01,180,*67
$GPGSA,A,2,12,24,,,,,,,,,,,1.1,0.7,0.8*39
$GNGSA,A,1,,,,,,,,,,,,,1.1,0.7,0.8*21
$GPVTG,77.1,T,77.1,M,2.9,N,5.4,K,A*29
$GPRMC,091246.00,A,4539.130359,N,00008.863772,E,2.9,77.1,060421,2.1,W,A*16
$GPGGA,091246.00,4539.130359,N,00008.863772,E,1,02,0.7,106.0,M,49.0,M,,*6A
$GPGSV,3,1,12,10,19,275,21,12,68,232,24,15,30,170,22,17,18,040,28*7A
$GPGSV,3,2,12,19,34,061,25,24,72,078,30,25,26,236,23,32,19,313,38*7D
$GPGSV,3,3,12,06,00,000,,13,06,146,,20,00,000,,23,13,241,*7D
$GLGSV,2,1,08,02,45,298,26,12,42,281,22,21,23,108,29,03,07,337,29*6C
$GLGSV,2,2,08,10,14,066,,01,33,208,,20,24,045,,08,01,180,*67
$GPGSA,A,2,12,24,,,,,,,,,,,1.1,0.8,0.8*36
$GNGSA,A,1,,,,,,,,,,,,,1.1,0.8,0.8*2E
$GPVTG,74.8,T,74.8,M,2.8,N,5.2,K,A*2E
$GPRMC,091247.00,A,4539.130599,N,00008.864681,E,2.8,74.8,060421,2.1,W,A*1C
$GPGGA,091247.00,4539.130599,N,00008.864681,E,1,02,0.8,106.0,M,49.0,M,,*64
$GPGSV,3,1,11,10,19,275,22,12,68,232,23,17,18,040,28,19,34,061,24*72
$GPGSV,3,2,11,24,72,078,29,25,26,236,22,32,19,313,36,06,00,000,*70
$GPGSV,3,3,11,13,06,146,,20,00,000,,23,13,241,*48
$GLGSV,2,1,08,02,45,298,25,12,42,281,23,21,23,108,30,03,07,337,31*6F
$GLGSV,2,2,08,10,14,066,,01,33,208,,20,24,045,,08,01,180,*67
$GPGSA,A,2,12,24,,,,,,,,,,,1.1,0.8,0.8*36
$GNGSA,A,1,,,,,,,,,,,,,1.1,0.8,0.8*2E
$GPVTG,74.5,T,74.5,M,2.7,N,5.0,K,A*23
$GPRMC,091248.00,A,4539.130886,N,00008.865525,E,2.7,74.5,060421,2.1,W,A*1E
$GPGGA,091248.00,4539.130886,N,00008.865525,E,1,02,0.8,106.0,M,49.0,M,,*64
$GPGSV,3,1,12,10,19,275,25,12,68,232,24,17,18,040,25,19,34,061,22*7A
$GPGSV,3,2,12,24,72,078,31,25,26,236,24,32,19,313,35,06,00,000,*7F
$GPGSV,3,3,12,13,06,146,,15,30,170,,20,00,000,,23,13,241,*7A
$GLGSV,2,1,08,02,45,298,26,12,42,281,23,21,23,108,30,03,07,337,27*6B
$GLGSV,2,2,08,10,14,066,,01,33,208,,20,24,045,,08,01,180,*67
$GPGSA,A,2,12,24,,,,,,,,,,,1.1,0.8,0.8*36
$GNGSA,A,1,,,,,,,,,,,,,1.1,0.8,0.8*2E
$GPVTG,67.4,T,67.4,M,1.8,N,3.4,K,A*2D
$GPRMC,091249.00,A,4539.130918,N,00008.866345,E,1.8,67.4,060421,2.1,W,A*15
$GPGGA,091249.00,4539.130918,N,00008.866345,E,1,02,0.8,103.0,M,49.0,M,,*65
$GPGSV,3,1,12,10,19,275,26,12,68,232,30,15,30,170,22,17,18,040,26*76
$GPGSV,3,2,12,19,34,061,24,23,13,241,24,24,72,078,30,25,26,236,24*7A
$GPGSV,3,3,12,32,19,313,33,06,00,000,,13,06,146,,20,00,000,*71
$GLGSV,2,1,08,10,14,066,21,02,45,298,27,12,42,281,22,21,23,108,24*6F
$GLGSV,2,2,08,03,07,337,30,01,33,208,,20,24,045,,08,01,180,*63
$GPGSA,A,2,12,24,,,,,,,,,,,1.0,0.7,0.8*38
$GNGSA,A,1,,,,,,,,,,,,,1.0,0.7,0.8*20
$GPVTG,63.6,T,63.6,M,1.1,N,2.1,K,A*20
$GPRMC,091250.00,A,4539.131154,N,00008.867027,E,1.1,63.6,060421,2.1,W,A*15
$GPGGA,091250.00,4539.131154,N,00008.867027,E,1,02,0.7,106.0,M,49.0,M,,*60
$GPGSV,3,1,12,10,19,275,24,12,68,232,28,15,30,170,21,17,18,040,23*7B
$GPGSV,3,2,12,19,34,061,26,23,13,241,21,24,72,078,30,25,26,236,24*7D
$GPGSV,3,3,12,32,19,313,28,06,00,000,,13,06,146,,20,00,000,*7B
$GLGSV,2,1,07,02,45,298,31,12,42,281,30,21,23,108,24,03,07,337,29*6B
$GLGSV,2,2,07,01,33,208,,20,24,045,,08,01,180,*5C
$GPGSA,A,2,12,24,,,,,,,,,,,1.0,0.7,0.8*38
$GNGSA,A,1,,,,,,,,,,,,,1.0,0.7,0.8*20
$GPVTG,68.9,T,68.9,M,1.5,N,2.8,K,A*2D
$GPRMC,091251.00,A,4539.131515,N,00008.867813,E,1.5,68.9,060421,2.1,W,A*1A
$GPGGA,091251.00,4539.131515,N,00008.867813,E,1,02,0.7,105.0,M,49.0,M,,*6C
$GPGSV,3,1,11,10,19,275,26,12,68,232,27,15,30,170,20,17,18,040,23*74
$GPGSV,3,2,11,19,34,061,24,24,72,078,32,25,26,236,25,32,19,313,34*77
$GPGSV,3,3,11,06,00,000,,13,06,146,,20,00,000,*4A
$GLGSV,2,1,08,10,14,066,23,02,45,298,25,12,42,281,31,21,23,108,27*6E
$GLGSV,2,2,08,03,07,337,27,01,33,208,,20,24,045,,08,01,180,*65
$GPGSA,A,2,12,24,,,,,,,,,,,1.0,0.7,0.8*38
$GNGSA,A,1,,,,,,,,,,,,,1.0,0.7,0.8*20
$GPVTG,65.5,T,65.5,M,1.7,N,3.2,K,A*24
$GPRMC,091252.00,A,4539.131844,N,00008.868978,E,1.7,65.5,060421,2.1,W,A*10
$GPGGA,091252.00,4539.131844,N,00008.868978,E,1,02,0.7,105.0,M,49.0,M,,*65
$GPGSV,3,1,09,12,68,232,29,17,18,040,27,24,72,078,33,25,26,236,24*77
$GPGSV,3,2,09,32,19,313,37,06,00,000,,13,06,146,,20,00,000,*7E
$GPGSV,3,3,09,23,13,241,*44
$GLGSV,2,1,07,02,45,298,29,12,42,281,28,21,23,108,30,03,07,337,31*67
$GLGSV,2,2,07,01,33,208,,20,24,045,,08,01,180,*5C
$GPGSA,A,2,12,24,,,,,,,,,,,1.0,0.7,0.8*38
$GNGSA,A,1,,,,,,,,,,,,,1.0,0.7,0.8*20
$GPVTG,74.5,T,74.5,M,1.9,N,3.5,K,A*2D
$GPRMC,091253.00,A,4539.132192,N,00008.870054,E,1.9,74.5,060421,2.1,W,A*10
$GPGGA,091253.00,4539.132192,N,00008.870054,E,1,02,0.7,105.0,M,49.0,M,,*6B
$GPGSV,3,1,10,10,19,275,25,15,30,170,23,17,18,040,30,19,34,061,27*71
$GPGSV,3,2,10,24,72,078,30,32,19,313,33,06,00,000,,13,06,146,*7F
$GPGSV,3,3,10,20,00,000,,23,13,241,*7E
$GLGSV,2,1,08,02,45,298,29,12,42,281,29,21,23,108,31,03,07,337,30*69
$GLGSV,2,2,08,10,14,066,,01,33,208,,20,24,045,,08,01,180,*67
$GPGSA,A,2,24,,,,,,,,,,,,1.0,0.7,0.8*3B
$GNGSA,A,1,,,,,,,,,,,,,1.0,0.7,0.8*20
$GPVTG,67.8,T,67.8,M,1.8,N,3.3,K,A*2A
$GPRMC,091254.00,A,4539.132581,N,00008.870978,E,1.8,67.8,060421,2.1,W,A*18
$GPGGA,091254.00,4539.132581,N,00008.870978,E,1,01,0.7,105.0,M,49.0,M,,*6E
$GPGSV,3,1,10,10,19,275,25,15,30,170,23,17,18,040,30,19,34,061,27*71
$GPGSV,3,2,10,24,72,078,30,32,19,313,33,06,00,000,,13,06,146,*7F
$GPGSV,3,3,10,20,00,000,,23,13,241,*7E
$GLGSV,2,1,08,02,45,298,29,12,42,281,29,21,23,108,31,03,07,337,30*69
$GLGSV,2,2,08,10,14,066,,01,33,208,,20,24,045,,08,01,180,*67
$GPGSA,A,2,24,,,,,,,,,,,,1.0,0.7,0.8*3B
$GNGSA,A,1,,,,,,,,,,,,,1.0,0.7,0.8*20
$GPVTG,68.0,T,68.0,M,1.8,N,3.3,K,A*2A
$GPRMC,091255.00,A,4539.132953,N,00008.871821,E,1.8,68.0,060421,2.1,W,A*11
$GPGGA,091255.00,4539.132953,N,00008.871821,E,1,01,0.7,106.0,M,49.0,M,,*63
$GPGSV,3,1,10,10,19,275,27,12,68,232,29,15,30,170,23,19,34,061,31*79
$GPGSV,3,2,10,24,72,078,30,32,19,313,36,06,00,000,,13,06,146,*7A
$GPGSV,3,3,10,20,00,000,,23,13,241,*7E
$GLGSV,2,1,08,02,45,298,27,12,42,281,30,21,23,108,29,03,07,337,33*65
$GLGSV,2,2,08,10,14,066,,01,33,208,,20,24,045,,08,01,180,*67
$GPGSA,A,2,12,24,,,,,,,,,,,1.0,0.7,0.8*38
$GNGSA,A,1,,,,,,,,,,,,,1.0,0.7,0.8*20
$GPVTG,74.2,T,74.2,M,2.3,N,4.2,K,A*24
$GPRMC,091256.00,A,4539.133331,N,00008.872959,E,2.3,74.2,060421,2.1,W,A*17
$GPGGA,091256.00,4539.133331,N,00008.872959,E,1,02,0.7,106.0,M,49.0,M,,*61
$GPGSV,3,1,11,10,19,275,26,12,68,232,23,17,18,040,29,19,34,061,35*77
$GPGSV,3,2,11,24,72,078,32,32,19,313,34,06,00,000,,13,06,146,*7B
$GPGSV,3,3,11,20,00,000,,23,13,241,,25,26,236,*4B
$GLGSV,2,1,08,02,45,298,26,12,42,281,25,21,23,108,31,03,07,337,29*62
$GLGSV,2,2,08,10,14,066,,01,33,208,,20,24,045,,08,01,180,*67
$GPGSA,A,2,12,24,,,,,,,,,,,1.1,0.7,0.8*39
$GNGSA,A,1,,,,,,,,,,,,,1.1,0.7,0.8*21
$GPVTG,82.3,T,82.3,M,1.9,N,3.5,K,A*2D
$GPRMC,091257.00,A,4539.133502,N,00008.874160,E,1.9,82.3,060421,2.1,W,A*15
$GPGGA,091257.00,4539.133502,N,00008.874160,E,1,02,0.7,106.0,M,49.0,M,,*62
$GPGSV,3,1,11,10,19,275,26,12,68,232,23,17,18,040,29,19,34,061,35*77
$GPGSV,3,2,11,24,72,078,32,32,19,313,34,06,00,000,,13,06,146,*7B
$GPGSV,3,3,11,20,00,000,,23,13,241,,25,26,236,*4B
$GLGSV,2,1,08,02,45,298,26,12,42,281,25,21,23,108,31,03,07,337,29*62
$GLGSV,2,2,08,10,14,066,,01,33,208,,20,24,045,,08,01,180,*67
$GPGSA,A,2,12,24,,,,,,,,,,,1.1,0.8,0.8*36
$GNGSA,A,1,,,,,,,,,,,,,1.1,0.8,0.8*2E
$GPVTG,90.1,T,90.1,M,1.9,N,3.5,K,A*2D
$GPRMC,091258.00,A,4539.133567,N,00008.875225,E,1.9,90.1,060421,2.1,W,A*1B
$GPGGA,091258.00,4539.133567,N,00008.875225,E,1,02,0.8,106.0,M,49.0,M,,*62
$GPGSV,3,1,09,15,30,170,26,17,18,040,24,19,34,061,33,23,13,241,26*72
$GPGSV,3,2,09,24,72,078,32,32,19,313,34,06,00,000,,13,06,146,*72
$GPGSV,3,3,09,20,00,000,*42
$GLGSV,2,1,08,10,14,066,23,02,45,298,29,12,42,281,27,21,23,108,28*6A
$GLGSV,2,2,08,03,07,337,27,01,33,208,,20,24,045,,08,01,180,*65
$GPGSA,A,2,24,,,,,,,,,,,,1.0,0.7,0.8*3B
$GNGSA,A,1,,,,,,,,,,,,,1.0,0.7,0.8*20
$GPVTG,88.5,T,88.5,M,2.4,N,4.5,K,A*24
$GPRMC,091259.00,A,4539.133842,N,00008.876614,E,2.4,88.5,060421,2.1,W,A*16
$GPGGA,091259.00,4539.133842,N,00008.876614,E,1,01,0.7,105.0,M,49.0,M,,*63
$GPGSV,3,1,10,10,19,275,23,12,68,232,25,17,18,040,30,19,34,061,28*71
$GPGSV,3,2,10,24,72,078,31,25,26,236,25,32,19,313,33,06,00,000,*7A
$GPGSV,3,3,10,13,06,146,,20,00,000,*7D
$GLGSV,2,1,07,02,45,298,28,12,42,281,24,21,23,108,28,03,07,337,32*60
$GLGSV,2,2,07,01,33,208,,20,24,045,,08,01,180,*5C
$GPGSA,A,2,12,24,,,,,,,,,,,1.0,0.7,0.8*38
$GNGSA,A,1,,,,,,,,,,,,,1.0,0.7,0.8*20
$GPVTG,98.5,T,98.5,M,3.1,N,5.8,K,A*2C
$GPRMC,091300.00,A,4539.134062,N,00008.878198,E,3.1,98.5,060421,2.1,W,A*1E
$GPGGA,091300.00,4539.134062,N,00008.878198,E,1,02,0.7,105.0,M,49.0,M,,*6D
$GPGSV,3,1,12,10,19,275,23,12,68,232,26,15,30,170,23,17,18,040,30*72
$GPGSV,3,2,12,19,34,061,30,24,72,078,31,25,26,236,26,32,19,313,30*75
$GPGSV,3,3,12,06,00,000,,13,06,146,,20,00,000,,23,13,241,*7D
$GLGSV,2,1,08,02,45,298,27,12,42,281,26,21,23,108,34,03,07,337,32*6F
$GLGSV,2,2,08,10,14,066,,01,33,208,,20,24,045,,08,01,180,*67
$GPGSA,A,2,12,24,,,,,,,,,,,1.0,0.7,0.8*38
$GNGSA,A,1,,,,,,,,,,,,,1.0,0.7,0.8*20
$GPVTG,104.8,T,104.8,M,4.5,N,8.3,K,A*29
$GPRMC,091301.00,A,4539.133742,N,00008.879902,E,4.5,104.8,060421,2.1,W,A*2D
$GPGGA,091301.00,4539.133742,N,00008.879902,E,1,02,0.7,106.0,M,49.0,M,,*67
$GPGSV,3,1,12,10,19,275,23,12,68,232,26,15,30,170,23,17,18,040,30*72
$GPGSV,3,2,12,19,34,061,30,24,72,078,31,25,26,236,26,32,19,313,30*75
$GPGSV,3,3,12,06,00,000,,13,06,146,,20,00,000,,23,13,241,*7D
$GLGSV,2,1,08,02,45,298,27,12,42,281,26,21,23,108,34,03,07,337,32*6F
$GLGSV,2,2,08,10,14,066,,01,33,208,,20,24,045,,08,01,180,*67
$GPGSA,A,2,12,24,,,,,,,,,,,1.0,0.7,0.8*38
$GNGSA,A,1,,,,,,,,,,,,,1.0,0.7,0.8*20
$GPVTG,110.4,T,110.4,M,4.5,N,8.3,K,A*29
$GPRMC,091302.00,A,4539.133279,N,00008.881774,E,4.5,110.4,060421,2.1,W,A*22
$GPGGA,091302.00,4539.133279,N,00008.881774,E,1,02,0.7,107.0,M,49.0,M,,*60
$GPGSV,3,1,10,12,68,232,26,17,18,040,33,19,34,061,29,23,13,241,24*7A
$GPGSV,3,2,10,24,72,078,31,32,19,313,31,06,00,000,,13,06,146,*7C
$GPGSV,3,3,10,15,30,170,,20,00,000,*7B
$GLGSV,2,1,08,02,45,298,25,12,42,281,25,21,23,108,34,03,07,337,27*6A
$GLGSV,2,2,08,10,14,066,,01,33,208,,20,24,045,,08,01,180,*67
$GPGSA,A,2,12,24,,,,,,,,,,,1.0,0.7,0.8*38
$GNGSA,A,1,,,,,,,,,,,,,1.0,0.7,0.8*20
$GPVTG,102.3,T,102.3,M,3.9,N,7.2,K,A*2C
$GPRMC,091303.00,A,4539.133162,N,00008.883502,E,3.9,102.3,060421,2.1,W,A*24
$GPGGA,091303.00,4539.133162,N,00008.883502,E,1,02,0.7,107.0,M,49.0,M,,*69
$GPGSV,3,1,10,12,68,232,29,17,18,040,29,24,72,078,32,32,19,313,31*78
$GPGSV,3,2,10,06,00,000,,10,19,275,,13,06,146,,15,30,170,*70
$GPGSV,3,3,10,20,00,000,,25,26,236,*7E
$GLGSV,2,1,07,10,14,066,24,02,45,298,28,21,23,108,29,03,07,337,29*61
$GLGSV,2,2,07,01,33,208,,20,24,045,,08,01,180,*5C
$GPGSA,A,2,12,24,,,,,,,,,,,1.0,0.7,0.8*38
$GNGSA,A,1,,,,,,,,,,,,,1.0,0.7,0.8*20
$GPVTG,101.5,T,101.5,M,5.5,N,10.2,K,A*10
$GPRMC,091304.00,A,4539.133012,N,00008.885428,E,5.5,101.5,060421,2.1,W,A*25
$GPGGA,091304.00,4539.133012,N,00008.885428,E,1,02,0.7,107.0,M,49.0,M,,*67
$GPGSV,3,1,10,12,68,232,29,17,18,040,29,24,72,078,32,32,19,313,31*78
$GPGSV,3,2,10,06,00,000,,10,19,275,,13,06,146,,15,30,170,*70
$GPGSV,3,3,10,20,00,000,,25,26,236,*7E
$GLGSV,2,1,07,10,14,066,24,02,45,298,28,21,23,108,29,03,07,337,29*61
$GLGSV,2,2,07,01,33,208,,20,24,045,,08,01,180,*5C
$GPGSA,A,2,12,24,,,,,,,,,,,1.0,0.7,0.8*38
$GNGSA,A,1,,,,,,,,,,,,,1.0,0.7,0.8*20
$GPVTG,100.8,T,100.8,M,5.5,N,10.3,K,A*11
$GPRMC,091305.00,A,4539.132782,N,00008.887654,E,5.5,100.8,060421,2.1,W,A*2C
$GPGGA,091305.00,4539.132782,N,00008.887654,E,1,02,0.7,107.0,M,49.0,M,,*62
$GPGSV,3,1,10,10,19,275,23,12,68,232,24,17,18,040,30,19,34,061,29*71
$GPGSV,3,2,10,24,72,078,31,32,19,313,32,06,00,000,,13,06,146,*7F
$GPGSV,3,3,10,20,00,000,,23,13,241,*7E
$GLGSV,2,1,08,10,14,066,28,02,45,298,30,12,42,281,31,21,23,108,28*6E
$GLGSV,2,2,08,03,07,337,26,01,33,208,,20,24,045,,08,01,180,*64
$GPGSA,A,2,12,24,,,,,,,,,,,1.0,0.7,0.8*38
$GNGSA,A,1,,,,,,,,,,,,,1.0,0.7,0.8*20
$GPVTG,98.9,T,98.9,M,3.9,N,7.2,K,A*2C
$GPRMC,091306.00,A,4539.132526,N,00008.889505,E,3.9,98.9,060421,2.1,W,A*11
$GPGGA,091306.00,4539.132526,N,00008.889505,E,1,02,0.7,106.0,M,49.0,M,,*65
$GPGSV,3,1,10,10,19,275,23,12,68,232,24,17,18,040,30,19,34,061,29*71
$GPGSV,3,2,10,24,72,078,31,32,19,313,32,06,00,000,,13,06,146,*7F
$GPGSV,3,3,10,20,00,000,,23,13,241,*7E
$GLGSV,2,1,08,10,14,066,28,02,45,298,30,12,42,281,31,21,23,108,28*6E
$GLGSV,2,2,08,03,07,337,26,01,33,208,,20,24,045,,08,01,180,*64
$GPGSA,A,2,12,24,,,,,,,,,,,1.0,0.7,0.8*38
$GNGSA,A,1,,,,,,,,,,,,,1.0,0.7,0.8*20
$GPVTG,99.0,T,99.0,M,3.9,N,7.2,K,A*2C
$GPRMC,091307.00,A,4539.132313,N,00008.891036,E,3.9,99.0,060421,2.1,W,A*14
$GPGGA,091307.00,4539.132313,N,00008.891036,E,1,02,0.7,106.0,M,49.0,M,,*68
$GPGSV,3,1,12,10,19,275,27,12,68,232,28,17,18,040,28,19,34,061,29*72
$GPGSV,3,2,12,24,72,078,25,25,26,236,26,32,19,313,32,06,00,000,*7F
$GPGSV,3,3,12,13,06,146,,15,30,170,,20,00,000,,23,13,241,*7A
$GLGSV,2,1,07,02,45,298,31,12,42,281,32,21,23,108,30,03,07,337,28*6D
$GLGSV,2,2,07,01,33,208,,20,24,045,,08,01,180,*5C
$GPGSA,A,2,12,24,,,,,,,,,,,1.0,0.7,0.8*38
$GNGSA,A,1,,,,,,,,,,,,,1.0,0.7,0.8*20
$GPVTG,106.8,T,106.8,M,2.6,N,4.9,K,A*2A
$GPRMC,091308.00,A,4539.132137,N,00008.892384,E,2.6,106.8,060421,2.1,W,A*27
$GPGGA,091308.00,4539.132137,N,00008.892384,E,1,02,0.7,107.0,M,49.0,M,,*6B
$GPGSV,3,1,12,10,19,275,27,12,68,232,28,17,18,040,28,19,34,061,29*72
$GPGSV,3,2,12,24,72,078,25,25,26,236,26,32,19,313,32,06,00,000,*7F
$GPGSV,3,3,12,13,06,146,,15,30,170,,20,00,000,,23,13,241,*7A
$GLGSV,2,1,07,02,45,298,31,12,42,281,32,21,23,108,30,03,07,337,28*6D
$GLGSV,2,2,07,01,33,208,,20,24,045,,08,01,180,*5C
$GPGSA,A,2,12,24,,,,,,,,,,,1.1,0.7,0.8*39
$GNGSA,A,1,,,,,,,,,,,,,1.1,0.7,0.8*21
$GPVTG,106.9,T,106.9,M,2.6,N,4.9,K,A*2A
$GPRMC,091309.00,A,4539.131974,N,00008.893465,E,2.6,106.9,060421,2.1,W,A*22
$GPGGA,091309.00,4539.131974,N,00008.893465,E,1,02,0.7,107.0,M,49.0,M,,*6F
$GPGSV,3,1,12,10,19,275,24,12,68,232,22,17,18,040,30,19,34,061,26*7D
$GPGSV,3,2,12,24,72,078,26,25,26,236,26,32,19,313,30,06,00,000,*7E
$GPGSV,3,3,12,13,06,146,,15,30,170,,20,00,000,,23,13,241,*7A
$GLGSV,2,1,06,02,45,298,31,12,42,281,29,21,23,108,22,01,33,208,*67
$GLGSV,2,2,06,20,24,045,,08,01,180,*66
$GPGSA,A,2,12,24,,,,,,,,,,,1.1,0.7,0.8*39
$GNGSA,A,1,,,,,,,,,,,,,1.1,0.7,0.8*21
$GPVTG,94.3,T,94.3,M,2.1,N,3.8,K,A*2B
$GPRMC,091310.00,A,4539.132042,N,00008.894500,E,2.1,94.3,060421,2.1,W,A*17
$GPGGA,091310.00,4539.132042,N,00008.894500,E,1,02,0.7,106.0,M,49.0,M,,*6C
$GPGSV,3,1,11,10,19,275,21,15,30,170,21,17,18,040,25,19,34,061,25*70
$GPGSV,3,2,11,24,72,078,28,25,26,236,24,32,19,313,29,06,00,000,*79
$GPGSV,3,3,11,13,06,146,,20,00,000,,23,13,241,*48
$GLGSV,2,1,08,10,14,066,22,02,45,298,27,12,42,281,26,21,23,108,28*64
$GLGSV,2,2,08,03,07,337,28,01,33,208,,20,24,045,,08,01,180,*6A
$GPGSA,A,2,24,,,,,,,,,,,,1.1,0.7,0.8*3A
$GNGSA,A,1,,,,,,,,,,,,,1.1,0.7,0.8*21
$GPVTG,94.3,T,94.3,M,2.2,N,4.1,K,A*26
$GPRMC,091311.00,A,4539.132281,N,00008.895395,E,2.2,94.3,060421,2.1,W,A*13
$GPGGA,091311.00,4539.132281,N,00008.895395,E,1,01,0.7,106.0,M,49.0,M,,*68
$GPGSV,3,1,10,15,30,170,20,17,18,040,26,19,34,061,23,24,72,078,26*77
$GPGSV,3,2,10,32,19,313,32,06,00,000,,12,68,232,,13,06,146,*7F
$GPGSV,3,3,10,20,00,000,,23,13,241,*7E
$GLGSV,2,1,08,10,14,066,22,02,45,298,25,12,42,281,25,21,23,108,28*65
$GLGSV,2,2,08,03,07,337,29,01,33,208,,20,24,045,,08,01,180,*6B
$GPGSA,A,2,24,,,,,,,,,,,,1.1,0.7,0.8*3A
$GNGSA,A,1,,,,,,,,,,,,,1.1,0.7,0.8*21
$GPVTG,84.7,T,84.7,M,3.4,N,6.4,K,A*26
$GPRMC,091312.00,A,4539.132413,N,00008.896834,E,3.4,84.7,060421,2.1,W,A*1C
$GPGGA,091312.00,4539.132413,N,00008.896834,E,1,01,0.7,103.0,M,49.0,M,,*60
$GPGSV,3,1,12,12,68,232,21,15,30,170,21,17,18,040,30,19,34,061,28*7D
$GPGSV,3,2,12,24,72,078,27,25,26,236,21,32,19,313,34,06,00,000,*7C
$GPGSV,3,3,12,10,19,275,,13,06,146,,20,00,000,,23,13,241,*72
$GLGSV,2,1,08,10,14,066,21,02,45,298,25,12,42,281,26,21,23,108,31*6D
$GLGSV,2,2,08,03,07,337,26,01,33,208,,20,24,045,,08,01,180,*64
$GPGSA,A,2,12,24,,,,,,,,,,,1.1,0.7,0.8*39
$GNGSA,A,1,,,,,,,,,,,,,1.1,0.7,0.8*21
$GPVTG,91.7,T,91.7,M,2.8,N,5.1,K,A*2D
$GPRMC,091313.00,A,4539.132570,N,00008.898338,E,2.8,91.7,060421,2.1,W,A*19
$GPGGA,091313.00,4539.132570,N,00008.898338,E,1,02,0.7,106.0,M,49.0,M,,*6A
$GPGSV,3,1,12,06,00,000,23,10,19,275,21,12,68,232,25,15,30,170,22*7D
$GPGSV,3,2,12,17,18,040,35,19,34,061,28,24,72,078,29,25,26,236,22*77
$GPGSV,3,3,12,32,19,313,30,13,06,146,,20,00,000,,23,13,241,*70
$GLGSV,2,1,07,02,45,298,26,12,42,281,24,21,23,108,27,03,07,337,31*62
$GLGSV,2,2,07,01,33,208,,20,24,045,,08,01,180,*5C
$GPGSA,A,2,12,24,,,,,,,,,,,1.1,0.7,0.8*39
$GNGSA,A,1,,,,,,,,,,,,,1.1,0.7,0.8*21
$GPVTG,89.8,T,89.8,M,3.1,N,5.7,K,A*23
$GPRMC,091314.00,A,4539.132831,N,00008.899778,E,3.1,89.8,060421,2.1,W,A*19
$GPGGA,091314.00,4539.132831,N,00008.899778,E,1,02,0.7,105.0,M,49.0,M,,*67
$GPGSV,3,1,10,06,00,000,22,12,68,232,23,17,18,040,36,19,34,061,32*74
$GPGSV,3,2,10,24,72,078,29,25,26,236,26,32,19,313,34,13,06,146,*76
$GPGSV,3,3,10,20,00,000,,23,13,241,*7E
$GLGSV,2,1,08,10,14,066,23,02,45,298,22,12,42,281,25,21,23,108,22*69
$GLGSV,2,2,08,03,07,337,27,01,33,208,,20,24,045,,08,01,180,*65
$GPGSA,A,2,12,24,,,,,,,,,,,1.1,0.7,0.8*39
$GNGSA,A,1,,,,,,,,,,,,,1.1,0.7,0.8*21
$GPVTG,87.2,T,87.2,M,2.6,N,4.8,K,A*2B
$GPRMC,091315.00,A,4539.133102,N,00008.901152,E,2.6,87.2,060421,2.1,W,A*1C
$GPGGA,091315.00,4539.133102,N,00008.901152,E,1,02,0.7,105.0,M,49.0,M,,*60
$GPGSV,3,1,11,06,00,000,22,10,19,275,24,12,68,232,22,15,30,170,22*7D
$GPGSV,3,2,11,17,18,040,32,19,34,061,31,24,72,078,29,32,19,313,28*7D
$GPGSV,3,3,11,13,06,146,,20,00,000,,23,13,241,*48
$GLGSV,2,1,08,10,14,066,25,02,45,298,25,12,42,281,23,21,23,108,28*64
$GLGSV,2,2,08,03,07,337,27,01,33,208,,20,24,045,,08,01,180,*65
$GPGSA,A,2,12,24,,,,,,,,,,,1.1,0.7,0.8*39
$GNGSA,A,1,,,,,,,,,,,,,1.1,0.7,0.8*21
$GPVTG,80.8,T,80.8,M,2.1,N,4.0,K,A*24
$GPRMC,091316.00,A,4539.133387,N,00008.902295,E,2.1,80.8,060421,2.1,W,A*11
$GPGGA,091316.00,4539.133387,N,00008.902295,E,1,02,0.7,104.0,M,49.0,M,,*66
$GPGSV,3,1,11,06,00,000,23,10,19,275,27,12,68,232,22,17,18,040,37*71
$GPGSV,3,2,11,19,34,061,34,23,13,241,21,24,72,078,32,25,26,236,22*79
$GPGSV,3,3,11,32,19,313,31,13,06,146,,20,00,000,*46
$GLGSV,2,1,08,10,14,066,25,02,45,298,24,12,42,281,22,21,23,108,30*6D
$GLGSV,2,2,08,03,07,337,23,01,33,208,,20,24,045,,08,01,180,*61
$GPGSA,A,2,12,24,,,,,,,,,,,1.0,0.7,0.8*38
$GNGSA,A,1,,,,,,,,,,,,,1.0,0.7,0.8*20
$GPVTG,80.0,T,80.0,M,2.1,N,3.9,K,A*2A
$GPRMC,091317.00,A,4539.133592,N,00008.903323,E,2.1,80.0,060421,2.1,W,A*17
$GPGGA,091317.00,4539.133592,N,00008.903323,E,1,02,0.7,102.0,M,49.0,M,,*6E
$GPGSV,3,1,11,06,00,000,24,10,19,275,26,12,68,232,26,15,30,170,22*7D
$GPGSV,3,2,11,17,18,040,36,19,34,061,34,24,72,078,32,25,26,236,23*71
$GPGSV,3,3,11,32,19,313,23,13,06,146,,20,00,000,*45
$GLGSV,2,1,08,10,14,066,27,02,45,298,26,12,42,281,26,01,33,208,21*69
$GLGSV,2,2,08,20,24,045,24,21,23,108,29,03,07,337,24,08,01,180,*6B
$GPGSA,A,2,12,24,,,,,,,,,,,1.0,0.6,0.8*39
$GNGSA,A,1,,,,,,,,,,,,,1.0,0.6,0.8*21
$GPVTG,85.7,T,85.7,M,2.1,N,3.9,K,A*2A
$GPRMC,091318.00,A,4539.133727,N,00008.904322,E,2.1,85.7,060421,2.1,W,A*10
$GPGGA,091318.00,4539.133727,N,00008.904322,E,1,02,0.6,101.0,M,49.0,M,,*69
$GPGSV,3,1,10,06,00,000,25,10,19,275,26,12,68,232,27,17,18,040,39*7C
$GPGSV,3,2,10,19,34,061,30,24,72,078,31,32,19,313,29,13,06,146,*78
$GPGSV,3,3,10,20,00,000,,23,13,241,*7E
$GLGSV,2,1,07,10,14,066,23,02,45,298,27,12,42,281,24,20,24,045,25*6B
$GLGSV,2,2,07,21,23,108,31,03,07,337,26,08,01,180,*5C
$GPGSA,A,2,12,24,,,,,,,,,,,1.0,0.6,0.8*39
$GNGSA,A,1,,,,,,,,,,,,,1.0,0.6,0.8*21
$GPVTG,54.2,T,54.2,M,3.2,N,5.9,K,A*2E
$GPRMC,091319.00,A,4539.133923,N,00008.905534,E,3.2,54.2,060421,2.1,W,A*10
$GPGGA,091319.00,4539.133923,N,00008.905534,E,1,02,0.6,99.0,M,49.0,M,,*52
$GPGSV,3,1,11,10,19,275,27,12,68,232,24,17,18,040,33,19,34,061,36*79
$GPGSV,3,2,11,24,72,078,33,32,19,313,33,13,06,146,,15,30,170,*7A
$GPGSV,3,3,11,20,00,000,,23,13,241,,25,26,236,*4B
$GLGSV,2,1,07,10,14,066,30,02,45,298,24,12,42,281,25,20,24,045,24*6A
$GLGSV,2,2,07,21,23,108,31,01,33,208,,08,01,180,*50
$GPGSA,A,2,12,24,,,,,,,,,,,1.0,0.6,0.8*39
$GNGSA,A,1,,,,,,,,,,,,,1.0,0.6,0.8*21
$GPVTG,54.8,T,54.8,M,2.9,N,5.4,K,A*29
$GPRMC,091320.00,A,4539.134242,N,00008.906881,E,2.9,54.8,060421,2.1,W,A*11
$GPGGA,091320.00,4539.134242,N,00008.906881,E,1,02,0.6,99.0,M,49.0,M,,*53
$GPGSV,3,1,11,10,19,275,24,17,18,040,35,19,34,061,35,24,72,078,30*78
$GPGSV,3,2,11,32,19,313,33,06,00,000,,13,06,146,,15,30,170,*70
$GPGSV,3,3,11,20,00,000,,23,13,241,,25,26,236,*4B
$GLGSV,2,1,08,10,14,066,30,02,45,298,27,12,42,281,27,20,24,045,24*64
$GLGSV,2,2,08,21,23,108,30,03,07,337,26,01,33,208,,08,01,180,*69
$GPGSA,A,2,24,,,,,,,,,,,,1.0,0.6,0.8*3A
$GNGSA,A,1,,,,,,,,,,,,,1.0,0.6,0.8*21
$GPVTG,56.4,T,56.4,M,2.6,N,4.9,K,A*2A
$GPRMC,091321.00,A,4539.134350,N,00008.908096,E,2.6,56.4,060421,2.1,W,A*13
$GPGGA,091321.00,4539.134350,N,00008.908096,E,1,01,0.6,99.0,M,49.0,M,,*53
$GPGSV,3,1,12,06,00,000,25,10,19,275,25,12,68,232,24,17,18,040,27*71
$GPGSV,3,2,12,19,34,061,35,24,72,078,30,25,26,236,27,32,19,313,30*70
$GPGSV,3,3,12,13,06,146,,15,30,170,,20,00,000,,23,13,241,*7A
$GLGSV,2,1,07,10,14,066,27,02,45,298,30,12,42,281,30,21,23,108,24*63
$GLGSV,2,2,07,03,07,337,26,01,33,208,,08,01,180,*5E
$GPGSA,A,2,12,24,,,,,,,,,,,1.0,0.6,0.8*39
$GNGSA,A,1,,,,,,,,,,,,,1.0,0.6,0.8*21
$GPVTG,62.2,T,62.2,M,3.3,N,6.1,K,A*24
$GPRMC,091322.00,A,4539.134716,N,00008.909605,E,3.3,62.2,060421,2.1,W,A*1E
$GPGGA,091322.00,4539.134716,N,00008.909605,E,1,02,0.6,98.0,M,49.0,M,,*59
$GPGSV,3,1,10,10,19,275,30,17,18,040,27,19,34,061,31,24,72,078,32*79
$GPGSV,3,2,10,25,26,236,24,32,19,313,35,13,06,146,,15,30,170,*73
$GPGSV,3,3,10,20,00,000,,23,13,241,*7E
$GLGSV,2,1,07,10,14,066,26,02,45,298,30,12,42,281,30,03,07,337,28*66
$GLGSV,2,2,07,01,33,208,,20,24,045,,08,01,180,*5C
$GPGSA,A,2,24,,,,,,,,,,,,1.0,0.7,0.8*3B
$GNGSA,A,1,,,,,,,,,,,,,1.0,0.7,0.8*20
$GPVTG,82.2,T,82.2,M,3.8,N,7.0,K,A*2F
$GPRMC,091323.00,A,4539.135022,N,00008.911246,E,3.8,82.2,060421,2.1,W,A*11
$GPGGA,091323.00,4539.135022,N,00008.911246,E,1,01,0.7,99.0,M,49.0,M,,*50
$GPGSV,3,1,12,10,19,275,27,12,68,232,29,17,18,040,29,19,34,061,30*7A
$GPGSV,3,2,12,24,72,078,33,25,26,236,27,32,19,313,34,06,00,000,*7F
$GPGSV,3,3,12,13,06,146,,15,30,170,,20,00,000,,23,13,241,*7A
$GLGSV,2,1,08,10,14,066,30,02,45,298,32,12,42,281,32,21,23,108,29*67
$GLGSV,2,2,08,03,07,337,31,01,33,208,,20,24,045,,08,01,180,*62
$GPGSA,A,2,12,24,,,,,,,,,,,1.2,0.9,0.8*34
$GNGSA,A,1,,,,,,,,,,,,,1.2,0.9,0.8*2C
$GPVTG,81.5,T,81.5,M,4.0,N,7.3,K,A*23
$GPRMC,091324.00,A,4539.135148,N,00008.912903,E,4.0,81.5,060421,2.1,W,A*19
$GPGGA,091324.00,4539.135148,N,00008.912903,E,1,02,0.9,98.0,M,49.0,M,,*5F
$GPGSV,3,1,12,10,19,275,30,12,68,232,27,17,18,040,29,19,34,061,29*7A
$GPGSV,3,2,12,24,72,078,34,25,26,236,22,32,19,313,29,06,00,000,*71
$GPGSV,3,3,12,13,06,146,,15,30,170,,20,00,000,,23,13,241,*7A
$GLGSV,2,1,08,10,14,066,31,02,45,298,32,12,42,281,33,21,23,108,30*6F
$GLGSV,2,2,08,03,07,337,29,01,33,208,,20,24,045,,08,01,180,*6B
$GPGSA,A,2,12,24,,,,,,,,,,,1.2,0.9,0.8*34
$GNGSA,A,1,,,,,,,,,,,,,1.2,0.9,0.8*2C
$GPVTG,76.1,T,76.1,M,3.8,N,7.1,K,A*2E
$GPRMC,091325.00,A,4539.135233,N,00008.914793,E,3.8,76.1,060421,2.1,W,A*15
$GPGGA,091325.00,4539.135233,N,00008.914793,E,1,02,0.9,98.0,M,49.0,M,,*50
$GPGSV,3,1,12,10,19,275,30,12,68,232,26,15,30,170,25,17,18,040,27*70
$GPGSV,3,2,12,19,34,061,23,24,72,078,29,25,26,236,23,32,19,313,33*78
$GPGSV,3,3,12,06,00,000,,13,06,146,,20,00,000,,23,13,241,*7D
$GLGSV,2,1,08,10,14,066,22,02,45,298,35,12,42,281,31,21,23,108,28*61
$GLGSV,2,2,08,03,07,337,32,01,33,208,,20,24,045,,08,01,180,*61
$GPGSA,A,2,12,24,,,,,,,,,,,1.1,0.7,0.8*39
$GNGSA,A,1,,,,,,,,,,,,,1.1,0.7,0.8*21
$GPVTG,85.7,T,85.7,M,4.1,N,7.6,K,A*27
$GPRMC,091326.00,A,4539.135352,N,00008.916838,E,4.1,85.7,060421,2.1,W,A*18
$GPGGA,091326.00,4539.135352,N,00008.916838,E,1,02,0.7,98.0,M,49.0,M,,*57
$GPGSV,3,1,09,10,19,275,22,12,68,232,25,17,18,040,26,24,72,078,28*7B
$GPGSV,3,2,09,32,19,313,33,06,00,000,,13,06,146,,20,00,000,*7A
$GPGSV,3,3,09,23,13,241,*44
$GLGSV,2,1,08,10,14,066,24,02,45,298,33,12,42,281,27,21,23,108,27*69
$GLGSV,2,2,08,03,07,337,30,01,33,208,,20,24,045,,08,01,180,*63
$GPGSA,A,2,12,24,,,,,,,,,,,1.1,0.7,0.8*39
$GNGSA,A,1,,,,,,,,,,,,,1.1,0.7,0.8*21
$GPVTG,82.1,T,82.1,M,3.6,N,6.6,K,A*26
$GPRMC,091327.00,A,4539.135576,N,00008.918713,E,3.6,82.1,060421,2.1,W,A*10
$GPGGA,091327.00,4539.135576,N,00008.918713,E,1,02,0.7,98.0,M,49.0,M,,*5E
$GPGSV,3,1,11,10,19,275,28,15,30,170,27,17,18,040,23,19,34,061,25*79
$GPGSV,3,2,11,24,72,078,30,32,19,313,31,06,00,000,,13,06,146,*7C
$GPGSV,3,3,11,20,00,000,,23,13,241,,25,26,236,*4B
$GLGSV,2,1,08,10,14,066,23,02,45,298,30,12,42,281,29,21,23,108,25*61
$GLGSV,2,2,08,03,07,337,31,01,33,208,,20,24,045,,08,01,180,*62
$GPGSA,A,2,24,,,,,,,,,,,,1.1,0.7,0.8*3A
$GNGSA,A,1,,,,,,,,,,,,,1.1,0.7,0.8*21
$GPVTG,84.7,T,84.7,M,4.3,N,8.0,K,A*2C
$GPRMC,091328.00,A,4539.135759,N,00008.920676,E,4.3,84.7,060421,2.1,W,A*1B
$GPGGA,091328.00,4539.135759,N,00008.920676,E,1,01,0.7,98.0,M,49.0,M,,*54
$GPGSV,3,1,11,10,19,275,29,12,68,232,26,15,30,170,27,17,18,040,24*7A
$GPGSV,3,2,11,24,72,078,32,25,26,236,26,32,19,313,35,06,00,000,*7D
$GPGSV,3,3,11,13,06,146,,20,00,000,,23,13,241,*48
$GLGSV,2,1,08,10,14,066,28,02,45,298,34,12,42,281,31,21,23,108,27*65
$GLGSV,2,2,08,03,07,337,33,01,33,208,,20,24,045,,08,01,180,*60
$GPGSA,A,2,12,24,,,,,,,,,,,1.1,0.7,0.8*39
$GNGSA,A,1,,,,,,,,,,,,,1.1,0.7,0.8*21
$GPVTG,85.0,T,85.0,M,3.9,N,7.3,K,A*2D
$GPRMC,091329.00,A,4539.135861,N,00008.922548,E,3.9,85.0,060421,2.1,W,A*19
$GPGGA,091329.00,4539.135861,N,00008.922548,E,1,02,0.7,98.0,M,49.0,M,,*5E
$GPGSV,3,1,12,06,00,000,20,10,19,275,20,12,68,232,23,15,30,170,20*7B
$GPGSV,3,2,12,17,18,040,33,19,34,061,33,24,72,078,33,25,26,236,22*70
$GPGSV,3,3,12,32,19,313,38,13,06,146,,20,00,000,,23,13,241,*78
$GLGSV,2,1,08,10,14,066,29,02,45,298,30,12,42,281,30,21,23,108,29*6F
$GLGSV,2,2,08,03,07,337,32,01,33,208,,20,24,045,,08,01,180,*61
$GPGSA,A,2,12,24,,,,,,,,,,,1.1,0.7,0.8*39
$GNGSA,A,1,,,,,,,,,,,,,1.1,0.7,0.8*21
$GPVTG,83.3,T,83.3,M,3.6,N,6.7,K,A*27
$GPRMC,091330.00,A,4539.135987,N,00008.924156,E,3.6,83.3,060421,2.1,W,A*1F
$GPGGA,091330.00,4539.135987,N,00008.924156,E,1,02,0.7,98.0,M,49.0,M,,*52
$GPGSV,3,1,12,06,00,000,20,10,19,275,21,12,68,232,27,15,30,170,20*7E
$GPGSV,3,2,12,17,18,040,36,19,34,061,31,24,72,078,34,25,26,236,21*73
$GPGSV,3,3,12,32,19,313,33,13,06,146,,20,00,000,,23,13,241,*73
$GLGSV,2,1,08,10,14,066,24,02,45,298,29,12,42,281,28,01,33,208,16*6F
$GLGSV,2,2,08,20,24,045,19,21,23,108,27,03,07,337,28,08,01,180,*67
$GPGSA,A,2,12,24,,,,,,,,,,,1.1,0.7,0.8*39
$GNGSA,A,1,,,,,,,,,,,,,1.1,0.7,0.8*21
$GPVTG,80.6,T,80.6,M,3.5,N,6.4,K,A*27
$GPRMC,091331.00,A,4539.136190,N,00008.925641,E,3.5,80.6,060421,2.1,W,A*16
$GPGGA,091331.00,4539.136190,N,00008.925641,E,1,02,0.7,98.0,M,49.0,M,,*5E
$GPGSV,3,1,12,06,00,000,19,10,19,275,20,12,68,232,25,15,30,170,25*72
$GPGSV,3,2,12,17,18,040,34,19,34,061,28,24,72,078,31,25,26,236,20*7D
$GPGSV,3,3,12,32,19,313,33,13,06,146,,20,00,000,,23,13,241,*73
$GLGSV,2,1,08,10,14,066,23,02,45,298,28,12,42,281,27,01,33,208,16*66
$GLGSV,2,2,08,20,24,045,20,21,23,108,28,03,07,337,28,08,01,180,*62
$GPGSA,A,2,12,24,,,,,,,,,,,1.1,0.7,0.8*39
$GNGSA,A,1,,,,,,,,,,,,,1.1,0.7,0.8*21
$GPVTG,94.0,T,94.0,M,3.5,N,6.5,K,A*26
$GPRMC,091332.00,A,4539.136362,N,00008.927122,E,3.5,94.0,060421,2.1,W,A*19
$GPGGA,091332.00,4539.136362,N,00008.927122,E,1,02,0.7,98.0,M,49.0,M,,*52
$GPGSV,3,1,12,06,00,000,20,10,19,275,22,12,68,232,32,15,30,170,37*7F
$GPGSV,3,2,12,17,18,040,34,19,34,061,33,24,72,078,37,25,26,236,25*74
$GPGSV,3,3,12,32,19,313,38,13,06,146,,20,00,000,,23,13,241,*78
$GLGSV,2,1,08,10,14,066,30,02,45,298,36,12,42,281,31,01,33,208,22*6B
$GLGSV,2,2,08,20,24,045,23,21,23,108,34,03,07,337,31,08,01,180,*64
$GPGSA,A,2,12,24,,,,,,,,,,,1.0,0.7,0.8*38
$GNGSA,A,1,,,,,,,,,,,,,1.0,0.7,0.8*20
$GPVTG,92.5,T,92.5,M,3.9,N,7.2,K,A*2C
$GPRMC,091333.00,A,4539.136438,N,00008.928623,E,3.9,92.5,060421,2.1,W,A*16
$GPGGA,091333.00,4539.136438,N,00008.928623,E,1,02,0.7,97.0,M,49.0,M,,*5D
$GPGSV,3,1,12,06,00,000,27,10,19,275,29,12,68,232,37,15,30,170,32*73
$GPGSV,3,2,12,17,18,040,35,19,34,061,40,24,72,078,42,25,26,236,26*70
$GPGSV,3,3,12,32,19,313,35,13,06,146,,20,00,000,,23,13,241,*75
$GLGSV,2,1,08,10,14,066,33,02,45,298,32,12,42,281,36,01,33,208,27*6E
$GLGSV,2,2,08,20,24,045,26,21,23,108,43,03,07,337,37,08,01,180,*67
$GPGSA,A,2,12,24,,,,,,,,,,,1.0,0.7,0.8*38
$GNGSA,A,1,,,,,,,,,,,,,1.0,0.7,0.8*20
$GPVTG,94.2,T,94.2,M,3.2,N,5.9,K,A*2E
$GPRMC,091334.00,A,4539.136496,N,00008.929959,E,3.2,94.2,060421,2.1,W,A*1C
$GPGGA,091334.00,4539.136496,N,00008.929959,E,1,02,0.7,98.0,M,49.0,M,,*52
$GPGSV,3,1,12,06,00,000,26,10,19,275,31,12,68,232,34,15,30,170,35*7F
$GPGSV,3,2,12,17,18,040,30,19,34,061,37,24,72,078,39,25,26,236,24*7B
$GPGSV,3,3,12,32,19,313,37,13,06,146,,20,00,000,,23,13,241,*77
$GLGSV,2,1,08,10,14,066,33,02,45,298,32,12,42,281,29,01,33,208,26*61
$GLGSV,2,2,08,20,24,045,23,21,23,108,40,03,07,337,38,08,01,180,*6E
$GPGSA,A,2,12,24,,,,,,,,,,,1.0,0.7,0.8*38
$GNGSA,A,1,,,,,,,,,,,,,1.0,0.7,0.8*20
$GPVTG,97.4,T,97.4,M,3.1,N,5.7,K,A*23
